City,County,id,DateAdded,Price,Exterior color,Bedrooms,Bathrooms,Floors,waterfront,View,Condition,Grade,Sqft_living,Sqft_lot,Sqft_above,Sqft_basement,Yr_built,Yr_renovated,timedelta,Country,Country-ISO,Full-State,State,lat,long,NeighborhoodName,ZipCode
Toronto,,9322800210,2014-05-20,879950,gray,4,2,1,False,4,4,9,3500,13875,1830,1670,1938,0,7.181110469282408,Canada,CAN,,,48.36679,-72.21584,Petite rivière Ballantyne,P8N 0M4
Winnipeg,,7010700976,2014-11-14,505000,light gray,3,1,1,False,0,3,7,1100,5400,1100,0,1908,0,9.902501617835648,Canada,CAN,,,50.7167,-92.50033,Fork Creek,T8L 0E4
St_Johns,,6752000330,2014-08-15,490000,black,3,1,1,False,0,3,8,1490,11360,1490,0,1975,0,6.173574384675924,Canada,CAN,,,,,,--
Toronto,,291310310,2014-12-10,533500,yelow,3,3,2,False,0,3,8,2490,3517,1720,770,9999999,0,-0.1049935093287037,Canada,CAN,,,46.06681,-75.78263000000001,Grand Lac Bait,N4X 9M2
Union Center,Meade,3991400080,2014-12-16,499900,light pink,3,1,1,False,2,3,8,2430,8820,1630,800,1977,0,1.273405916898148,USA,USA,South Dakota,SD,44.638003999999995,-102.79796,,37110
West Van Lear,Johnson,2972300140,2014-08-21,352500,pink,3,2,1,False,0,3,8,1920,33630,1920,0,1992,0,-0.05825071126157407,USA,USA,Kentucky,KY,37.786111,-82.771389,,33823
Johnsonville,Rensselaer,6819100122,2014-06-05,0,white,2,1,1,False,0,3,7,970,3400,970,0,1924,0,0.3070414216666666,USA,USA,New York,NY,42.876875,-73.498899,,19454
Moncton,,2487200680,2015-02-24,447000,white,2,1,1,False,2,3,6,720,7500,720,0,1925,0,3.7645296918865734,Canada,CAN,,,45.37842,-65.57840999999999,Burchills Flats,E5H 9T7
Thebes,Alexander,7574910490,2014-11-14,864500,   ,0,0,0,True,0,0,0,0,0,0,0,0,0,3.23613636625,USA,USA,Illinois,IL,37.191554,-89.396896,,54650
Toronto,,710600160,2014-09-09,665000,light blue,4,3,2,False,0,3,8,2650,3474,2230,420,2011,0,8.475218024861112,Canada,CAN,,,47.10139,-75.6575,Lac Mélançon,H9P 7E8
Toronto,,1442300035,2014-07-02,355000,white,3,1,1,False,0,3,7,1730,7416,1730,0,1954,0,6.9685685786805545,Canada,CAN,,,47.55472,-76.31389,Lac Hindu,V3A 8K8
Opal,Lincoln,326069118,2014-06-30,760000,blue,4,2,2,False,0,3,8,3300,165528,3300,0,1984,0,10.84936605533565,USA,USA,Wyoming,WY,41.769166999999996,-110.325278,,29483
Toronto,,4083305870,2014-10-01,705000,white,2,2,1,False,0,5,7,1650,6840,1650,0,1916,0,-1.5849688348611108,Canada,CAN,,,49.36688,-77.8828,Razilly,P2N 1K8
Berlin,,9407001620,2014-08-12,280000,light gray,3,2,2,False,0,3,7,1370,22326,1370,0,1993,0,6.380923185868057,Germany,DEU,,,49.41923,9.43458,Marienhöhe,27002
North Kingstown,Washington,3438500797,2014-07-08,368000,yelow,4,1,1,False,0,3,7,2100,11942,1030,1070,0,0,7.582335239178241,USA,USA,Rhode Island,RI,41.589426,-71.46249399999999,,02301
Fulton,Kalamazoo,2421059090,2015-05-11,640000,light blue,4,2,2,False,0,4,8,4090,215186,3670,420,1979,0,-2.630400429085648,USA,USA,Michigan,MI,42.139086,-85.322659,,20175
Akiak,Bethel,8857640420,2014-10-01,294000,light pink,4,2,2,False,0,3,8,2190,3746,2190,0,2005,0,1.6069663732291668,USA,USA,Alaska,AK,60.890632,-161.199325,,99654
Buffalo,Leon,7715800570,2015-04-13,385000,green,3,2,1,False,0,3,7,1010,7380,1010,0,1982,0,8.10299236851852,USA,USA,Texas,TX,31.457151,-96.058516,,08037
Vineburg,Sonoma,3342103369,2014-07-07,481000,yelow,4,2,2,False,0,3,8,2286,8269,2286,0,2002,0,2.031779713078703,USA,USA,California,CA,38.2725,-122.4375,,14580
Berlin,,7852130640,2014-06-02,432500,blue,3,2,2,False,0,3,7,2240,6396,2240,0,2002,0,7.817490160347222,Germany,DEU,,,54.63333000000001,9.73333,Brebelhof,60493
Vancouver,,3356402705,2015-03-17,216000,yelow,4,2,2,False,0,3,7,1847,8000,1847,0,2008,0,5.090286755497685,Canada,CAN,,,,,,
Gay,Meriwether,7979900440,2015-05-12,600000,pink,2,1,1,False,1,3,7,2080,13054,2080,0,0,0,1.4427118161342591,USA,USA,Georgia,GA,33.149902000000004,-84.58057600000001,,32720
Toronto,,1972201161,2015-03-23,435000,light gray,1,1,1,False,0,5,6,670,1800,670,0,1905,0,8.740997480532407,Canada,CAN,,,45.015390000000004,-74.54817,Marais Sugar Bush,K7G 9T2
Thunder_Bay,,3278600670,2014-05-23,235000, ,2,1,1,False,0,3,8,1140,1730,1010,130,2007,0,6.472340568402778,Canada,CAN,,,48.316790000000005,-88.9834,Hare Island Reef,B4H 6V3
Berlin,,1102000270,2014-07-01,1080000,white,3,2,2,False,1,3,8,3890,7216,3260,630,1967,2010,-1.3006404356828702,Germany,DEU,,,49.483540000000005,8.46974,Kurpfalz Gymnasium und Realschule,68795
Vancouver,,6139100101,2015-05-05,405100,   ,4,2,1,False,0,4,7,1580,7300,1580,0,1955,0,4.5278562447569435,Canada,CAN,,,54.20794,-130.4145,West Kinahan Island,E4K 1M0
Indian Rocks Beach,Pinellas,2525300030,2015-02-22,232000,Null,3,1,1,False,0,4,6,1400,10403,1400,0,1976,0,-0.8454300953935185,USA,USA,Florida,FL,27.884,-82.8455,,46321
Moncton,,1402950100,2014-11-21,305000,light gray,4,2,2,False,0,3,8,2430,5959,2430,0,2002,0,5.206394349178241,Canada,CAN,,,47.56817,-64.98977,Bois Hébert,T9W 5R1
Vancouver,,9542890100,2014-12-29,415000,light blue,2,2,2,False,0,3,8,1130,2191,1130,0,2010,0,4.345831229270833,Canada,CAN,,,53.64666999999999,-125.32667,Mackenzie Lake,V8L 9Y0
Coinjock,Currituck,2171400126,2014-06-05,269000,black,3,1,1,False,0,3,7,1690,4250,1020,670,1967,0,-2.912929207731481,USA,USA,North Carolina,NC,36.375064,-75.934012,,58701
Toronto,,2923500230,2014-12-16,2600000,yelow,4,4,2,True,4,3,11,5270,12195,3400,1870,1979,0,-2.830255919537037,Canada,CAN,,,44.23188,-80.94552,McDonald Lake,A1W 3T6
Toronto,,1788300010,2014-12-11,179950, ,2,1,1,False,0,3,6,1200,9000,1200,0,1958,0,-1.7118942849074068,Canada,CAN,,,46.54811,-77.43863,Lac Billy,J0B 1L5
Yellowknife,,8563080020,2014-10-28,740000,pink,3,2,2,False,2,4,9,2960,9350,2960,0,1978,0,3.7181262636342596,Canada,CAN,,,66.46117,-129.03336000000002,Airport Creek,V1N 8X9
Flat Rock,Shelby,6632900574,2015-02-25,595000,white,5,3,1,False,0,3,7,2980,10064,1680,1300,1940,0,2.686964110949074,USA,USA,Indiana,IN,39.407503000000005,-85.675886,,34293
Bowling Green,Hardee,3582700070,2014-12-05,356500,gray,4,1,1,False,0,3,7,1570,9670,1170,400,1959,0,2.312284668703704,USA,USA,Florida,FL,27.627738,-81.845058,,30741
Springvale,York,2301400640,2014-07-17,891000,light pink,4,2,1,False,0,5,7,2330,5000,1720,610,1925,0,8.869374142962963,USA,USA,Maine,ME,43.471499,-70.806445,,15146
Fort Eustis,Newport News City,1678400105,2015-02-12,339000,white,4,1,1,False,2,3,7,2390,7480,2390,0,1920,0,7.712097437037038,USA,USA,Virginia,VA,37.122112,-76.589727,,16506
Berlin,,2591830350,2014-08-20,397500,Null,3,2,1,False,0,4,8,2130,8225,2130,0,1987,0,-2.0417780523263893,Germany,DEU,,,51.26933,10.10897,Wiesenfeld,38854
Culpeper,Culpeper,7714000250,2014-10-18,394000,yelow,5,3,2,False,0,3,8,3620,4650,2790,830,2004,0,6.854256494664353,USA,USA,Virginia,VA,38.48115,-78.00406,,33054
Toronto,,2599700040,2014-12-30,160000,yelow,4,1,1,False,0,4,6,1540,7350,770,770,1969,0,2.341437639039352,Canada,CAN,,,46.12167,-74.08444,Lac Hiawatha,X0C 8P5
Livingston,Rockcastle,2005600090,2014-05-14,160000,light gray,3,1,1,False,0,4,6,860,11900,860,0,1963,0,-1.4694260069444443,USA,USA,Kentucky,KY,37.307390999999996,-84.231776,,11776
Capulin,Conejos,3629800100,2014-10-28,520000,white,3,2,2,False,0,3,9,2160,4297,2160,0,1999,0,-2.230293244652778,USA,USA,Colorado,CO,37.283889,-106.11083300000001,,24401
Toronto,,3904100089,2015-03-18,300000,white,3,1,1,False,0,4,6,1350,7370,1350,0,1912,0,10.40114191818287,Canada,CAN,,,45.45793,-73.59054,Parc Campbell Ouest,E8R 2E4
Vancouver,,1446800995,2014-08-05,300000,Null,3,2,1,False,0,4,7,2020,6628,1250,770,1963,0,-0.004827804652777778,Canada,CAN,,,50.68528,-120.63611000000002,Beaton Lake,E7A 0Y6
St_Johns,,6413600285,2014-08-25,402000,pink,3,1,1,False,0,5,7,1580,6127,1580,0,1947,0,-0.5645304051736111,Canada,CAN,,,47.131840000000004,-55.49521,Swabs Dock,G4X 9T2
La Jara,Sandoval,8562890560,2014-06-26,399000,white,4,3,2,False,0,3,8,3060,5000,3060,0,2001,0,3.5040290112152785,USA,USA,New Mexico,NM,36.119383,-106.99233500000001,,34221
Berlin,,1423400160,2014-06-18,230000,yelow,2,1,1,False,0,3,6,1080,9435,1080,0,1958,0,4.9102110634027785,Germany,DEU,,,52.04148,12.57803,Raben,77742
Toronto,,4083300098,2014-11-17,453000,yelow,2,1,2,False,0,3,7,1160,1269,970,190,2005,0,1.325279372800926,Canada,CAN,,,44.85968,-75.44541,Pittston,L7B 4V6
Winnipeg,,3026059362,2014-10-31,499000,white,3,2,2,False,0,3,8,1861,1587,1578,283,2007,0,6.265834585914353,Canada,CAN,,,49.33212,-93.48781,Basil Lake,H3J 8R5
Toronto,,3905080250,2014-09-26,575000,light blue,4,2,2,False,0,3,8,2630,6247,2630,0,1992,0,-2.9180944912152786,Canada,CAN,,,48.86679,-85.26653,Magone,N9V 2S3
Edmonton,,4389200876,2014-07-01,1565000,gray,4,2,1,False,1,4,7,2970,12750,2130,840,1918,1986,8.654243395081018,Canada,CAN,,,51.18329,-116.11885,Tokumm Creek,V2A 4N6
Fort Benton,Chouteau,7116500705,2015-01-29,156000,Null,2,1,1,False,0,4,6,920,5889,920,0,1950,0,3.0286470932060188,USA,USA,Montana,MT,,,,
White Oak,Raleigh,3677400445,2014-09-02,475000,blue,3,1,1,False,0,5,7,2480,5280,1620,860,1947,0,-0.7925881174768519,USA,USA,West Virginia,WV,37.68008,-81.058875,,48823
Berlin,,3626079032,2014-07-30,396400,white,4,2,2,False,0,2,7,2120,215186,2120,0,1983,0,8.775980775590279,Germany,DEU,,,49.67475,7.6745399999999995,Roth,40561
Berlin,,7229900885,2014-11-03,313000,Null,3,1,1,False,0,4,7,1510,10369,1010,500,1968,0,10.19123829116898,Germany,DEU,,,,,,
Greenfield,Franklin,6431000015,2014-05-30,700000,light gray,4,2,1,False,0,3,7,2310,3570,1490,820,1927,2014,7.976849082002316,USA,USA,Massachusetts,MA,42.601222,-72.60184699999999,,28348
Quinton,New Kent,1310430400,2014-05-13,455000,,4,2,2,False,0,3,9,3360,7685,3360,0,2001,0,0.6363123944444444,USA,USA,Virginia,VA,37.518466,-77.148607,,95677
Ochelata,Washington,9392500100,2014-07-23,249000,light pink,4,2,1,False,0,3,7,1860,9576,1400,460,1962,0,-1.874184676805556,USA,USA,Oklahoma,OK,36.594654999999996,-95.969143,,76522
Toronto,,6669020290,2015-03-04,279950,pink,3,1,1,False,0,3,8,1720,9775,1720,0,1978,0,5.901391531018517,Canada,CAN,,,46.261109999999995,-73.69556,Lac Priscault,N0B 5A4
Berlin,,3658700510,2014-07-24,620000,white,4,2,1,False,0,5,7,2290,3060,1550,740,1928,0,-1.811645810023148,Germany,DEU,,,50.756240000000005,6.958660000000001,Bisdorf,81247
Toronto,,7967000130,2015-04-01,370228,light pink,4,3,2,False,0,3,8,2050,4000,2050,0,2014,0,-1.7318201559722217,Canada,CAN,,,46.83917,-74.28028,Lac Petit Brochet,E5H 9N8
Weston,Collin,7625703800,2015-04-24,560000,white,3,2,1,False,0,5,7,1300,6000,1300,0,1943,0,8.23945008736111,USA,USA,Texas,TX,33.348889,-96.669167,,32958
Toronto,,1774230180,2014-09-17,696500,black,5,2,1,False,0,3,8,3210,61419,3210,0,1979,0,8.041504571874999,Canada,CAN,,,50.55444,-66.79666999999999,Lac Fortune,R6M 2T5
Mascot,King And Queen,3885806565,2015-01-30,1339000,yelow,4,3,2,False,3,3,9,2980,6349,2980,0,1998,0,6.089046514386575,USA,USA,Virginia,VA,37.60683,-76.738324,,06880
Berlin,,1223039235,2014-11-14,605000,blue,5,2,2,False,0,4,8,2910,13332,2910,0,1940,1991,-2.277709071145833,Germany,DEU,,,52.123290000000004,7.873419999999999,Blömker,40927
Toronto,,2473002060,2014-05-19,442500,white,3,1,1,False,0,3,8,1800,10200,1800,0,1967,0,5.183620345983797,Canada,CAN,,,45.38341,-80.4164,Dixon Bank,B4P 8S3
Trout Creek,Delaware,8731902680,2014-11-20,218000,light blue,3,2,1,False,0,4,8,1610,7084,1280,330,1968,0,9.699809954791666,USA,USA,New York,NY,42.203610999999995,-75.27972199999999,,34668
Halifax,,7853280550,2014-05-28,700000,light blue,4,3,2,False,0,3,9,4490,5099,3390,1100,2006,0,4.034602399699073,Canada,CAN,,,45.743320000000004,-63.46615,Wallace Grant,E4M 5J0
Toronto,,2895800750,2015-04-17,274800,white,3,1,2,False,0,3,8,1410,1988,1410,0,2014,0,2.114941092731482,Canada,CAN,,,49.75014,-74.24915,Baie Corner,N8H 5Y7
Oriska,Barnes,3508100135,2015-03-16,1101000,white,3,1,2,False,3,3,9,2220,4830,1790,430,1928,2010,5.451942193125,USA,USA,North Dakota,ND,46.943251000000004,-97.785331,,37601
Tupper Lake,Franklin,9550200265,2014-08-18,625000,yelow,3,1,1,False,0,3,7,1240,4080,1240,0,1925,0,4.034640468993056,USA,USA,New York,NY,44.228460999999996,-74.463172,,33442
Summer Shade,Metcalfe,3322049201,2014-05-23,275000,yelow,4,1,2,False,0,3,7,1930,15531,1930,0,1979,0,-2.3585776213657406,USA,USA,Kentucky,KY,36.888345,-85.708322,,08080
Big Run,Wetzel,5437200080,2015-02-04,350000,black,4,2,1,False,2,3,9,2500,11659,1490,1010,1979,0,5.235943120219908,USA,USA,West Virginia,WV,39.59414,-80.58371700000001,,17402
Skaneateles,Onondaga,3629970930,2014-11-11,670000,light pink,3,3,2,False,0,3,9,2980,3730,2980,0,2005,0,3.4239898849652786,USA,USA,New York,NY,42.925751,-76.405174,,29150
Kingfisher,Kingfisher,3629790160,2014-07-24,524250,black,3,2,2,False,0,3,8,1710,3469,1710,0,1999,0,-0.19641471797453697,USA,USA,Oklahoma,OK,35.863613,-97.947293,,34711
Rankin_Inlet,,8924100308,2015-02-03,1050000,white,4,2,2,False,1,3,9,3260,5974,2820,440,2007,0,7.140839012974538,Canada,CAN,,,65.65083,-86.51605,Umiijarvik Point,G7P 7N8
Toronto,,2902200915,2014-11-25,675000,light pink,3,1,1,False,0,3,7,2130,4400,1430,700,1922,0,10.843284005914349,Canada,CAN,,,48.53556,-74.90444000000001,Lac Eriko,J3V 5X0
Wyoming,Kent,5468750060,2014-10-28,328500,yelow,4,3,2,False,0,3,9,2290,8250,2290,0,1990,0,0.154485202337963,USA,USA,Michigan,MI,42.900867,-85.705775,,32159
Hillsboro,Sierra,2125079054,2015-02-24,522500,white,4,2,1,False,0,3,7,2200,122403,2200,0,1971,0,5.547964470231482,USA,USA,New Mexico,NM,32.923913,-107.6276,,47711
Toronto,,1383800015,2015-01-08,524000,Null,3,2,3,False,0,3,8,1370,1007,1330,40,2009,0,6.239395341585648,Canada,CAN,,,49.63348,-76.94941,Montagnes Dalhousie,G5H 2T7
Vancouver,,1773100926,2014-06-03,320000,light gray,3,3,2,False,0,3,8,1530,1602,1140,390,2013,0,3.6152176115856482,Canada,CAN,,,58.83285,-130.35362,Mosquito Creek,K1G 1X5
Toronto,,301402140,2015-02-26,250000,gray,3,2,2,False,0,3,7,1481,2820,1481,0,2012,0,7.773433326319445,Canada,CAN,,,47.272009999999995,-78.04420999999999,Lac du Gobelet,K7A 0G4
Granby,Essex,8598900125,2015-04-06,443000,white,3,1,1,False,0,3,7,1530,8028,1200,330,1967,0,-0.02135816450231481,USA,USA,Vermont,VT,44.570555999999996,-71.759167,,98503
Berlin,,9528104109,2014-10-27,530000,yelow,3,2,3,False,0,3,7,1365,1090,1315,50,2003,0,3.7489950384722217,Germany,DEU,,,48.4534,10.2621,Günzburg,30897
Union,Knox,7138000170,2015-01-02,147500,white,3,1,1,False,0,3,7,1230,10125,1230,0,1960,0,1.437329820983796,USA,USA,Maine,ME,44.242404,-69.25243499999999,,49022
Berlin,,3812400455,2014-11-04,291000,pink,7,1,1,False,0,3,7,2350,8636,1550,800,1962,0,2.9460181315625,Germany,DEU,,,48.67151,9.23873,Sielmingen,19830
Newton,Middlesex,4039100400,2015-05-06,515000,white,3,2,1,False,0,4,8,3000,8250,1760,1240,1963,0,9.837536155046298,USA,USA,Massachusetts,MA,42.3545,-71.1877,,24112
Winnipeg,,984000410,2015-02-18,225000,gray,3,2,1,False,0,4,7,2170,11745,1410,760,1967,0,3.4278685293287032,Canada,CAN,,,52.79945,-100.65804,Shoal River 65F,H3E 6V1
Selawik,Northwest Arctic,5589300370,2015-04-01,282000,light gray,4,1,1,False,0,3,7,1200,11111,1200,0,1949,0,-1.8897137150347219,USA,USA,Alaska,AK,65.713537,-158.534287,,32159
Berlin,,7940710070,2014-08-22,394000,pink,3,2,1,False,0,3,8,1370,4400,1370,0,1988,0,10.910898883368061,Germany,DEU,,,53.337019999999995,14.03315,Grenz,38663
Avoca,Lawrence,4048400185,2014-10-22,352000,white,2,0,1,False,0,4,4,760,33801,760,0,1931,0,4.74447327974537,USA,USA,Indiana,IN,38.911944,-86.54777800000001,,28803
Toronto,,9485300010,2015-02-13,311500,black,4,2,2,False,0,3,8,1940,10133,1940,0,1992,0,-0.2854355559143519,Canada,CAN,,,48.583729999999996,-73.95411999999999,Rivière Wabano Ouest,B4H 7P9
Regina,,1683800120,2014-11-17,302500,light pink,3,2,1,False,0,4,7,3100,11985,1790,1310,1963,0,0.7421163088541667,Canada,CAN,,,55.916740000000004,-106.28388000000001,Robinson Lake,R2C 1M9
Millwood,Clarke,7582700100,2014-11-11,1324050,white,3,3,2,False,0,3,9,3440,4080,2560,880,2005,0,9.307730982430558,USA,USA,Virginia,VA,39.069444,-78.03805600000001,,47906
Berlin,,9528104286,2015-01-13,455000,light blue,2,1,3,False,0,3,7,1020,1146,1020,0,2001,0,2.530705858912037,Germany,DEU,,,51.64201,8.20295,Neuenkamp,28353
De Soto,Dallas,3359500755,2014-09-02,544500,gray,5,1,1,False,0,3,7,1690,3240,1690,0,1914,0,10.33880909636574,USA,USA,Iowa,IA,41.533285,-94.027582,,48185
Halifax,,1473120230,2014-12-23,435000,white,4,2,2,False,0,3,9,2940,7590,2940,0,1991,0,-2.104257918043981,Canada,CAN,,,44.44518,-63.7203,Lower Woody Island,L4R 6T0
St_Johns,,104560280,2014-05-22,273000,red,4,3,2,False,0,3,7,1990,6180,1990,0,1990,0,6.494360995023148,Canada,CAN,,,47.83331,-59.34859,Net Cove,V8J 7T6
Rankin_Inlet,,2783600210,2014-09-16,445000,light pink,3,1,1,False,0,4,7,1850,16863,1280,570,1980,0,2.29837240787037,Canada,CAN,,,75.58497,-87.5501,Sukause Island,J2N 8N6
Breaks,Dickenson,4171200025,2015-03-27,299950,white,3,1,1,False,0,3,7,1940,8951,1300,640,1958,0,5.3145998603125,USA,USA,Virginia,VA,37.295833,-82.281111,,33510
Vancouver,,6799300130,2014-06-23,300000,light pink,4,2,2,False,0,3,8,1840,5550,1840,0,2004,0,3.8619945361574066,Canada,CAN,,,52.566430000000004,-126.36988999999998,Tzeetsaytsul Peak,R0J 1T3
Winnipeg,,2622029072,2014-10-01,520000,white,4,3,2,False,0,5,8,2734,210201,2734,0,1974,0,3.2287322362731485,Canada,CAN,,,51.93865,-95.1569,Nasatagun Creek,E7L 4V0
Retsil,Kitsap,7228500094,2014-12-12,278000,black,4,2,1,False,0,3,7,1480,6324,1480,0,1943,0,3.4491596590509266,USA,USA,Washington,WA,47.546110999999996,-122.61,,08234
Berlin,,2896000510,2014-08-21,490000,light blue,4,2,1,False,0,3,8,2120,7820,1280,840,1975,0,6.302339840949074,Germany,DEU,,,49.99777,11.69775,Heidelleithen,99458
Yellowknife,,3856901760,2014-12-15,730000,light pink,2,1,1,False,0,3,7,1860,3400,1010,850,1920,0,10.535335358414349,Canada,CAN,,,61.317080000000004,-109.43512,Naskethey Lakes,V2A 1T9
Flat Rock,Seneca,2346800270,2015-01-06,555000,gray,3,3,1,False,2,3,7,2920,23085,1540,1380,1908,0,10.99828632899306,USA,USA,Ohio,OH,41.235833,-82.86027800000001,,98837
Edmonton,,2617900035,2014-12-01,1520000,yelow,6,3,2,False,0,3,10,3720,11690,3720,0,2003,0,1.7083263349421298,Canada,CAN,,,53.06136,-118.1113,Warden Station,V8K 2V4
Toronto,,8149600065,2015-04-01,844000,light pink,4,3,2,False,2,3,8,3350,6350,2610,740,2009,0,2.7747526877430566,Canada,CAN,,,51.82307,-88.83847,Titford Lake,J8G 7L7
O Kean,Randolph,3812400657,2014-12-04,160000,red,3,1,1,False,0,2,6,1200,8360,1200,0,1948,0,7.648908316192129,USA,USA,Arkansas,AR,36.179672,-90.824069,,02130
Heflin,Webster,6744700900,2015-04-29,795000,light pink,4,2,1,False,4,3,8,2570,13450,1510,1060,1948,0,-1.152868869143518,USA,USA,Louisiana,LA,32.447008000000004,-93.28519200000001,,46037
Berlin,,1498303855,2015-02-24,718000,yelow,4,2,1,False,0,5,8,2930,4408,1660,1270,1939,0,10.5240764027662,Germany,DEU,,,51.717890000000004,14.663170000000001,Keune,45606
Remsen,Oneida,3883100220,2015-01-20,299000,yelow,3,1,1,False,0,4,7,2010,8065,1090,920,1984,0,5.212248779224537,USA,USA,New York,NY,43.338456,-75.161618,,21227
Toronto,,1565600130,2014-08-21,275000,white,5,1,1,False,0,3,7,2180,9178,1140,1040,1963,0,-1.534317654583333,Canada,CAN,,,43.53754,-79.65912,Sherwood Forrest,T7S 0Y2
Waggoner,Montgomery,6159400030,2014-10-08,399950,light pink,3,2,1,False,0,5,7,2050,9396,1170,880,1960,0,1.40090880880787,USA,USA,Illinois,IL,39.383829999999996,-89.647429,,83301
Douglassville,Cass,8118600025,2015-03-31,552500,pink,4,1,1,False,0,4,7,1560,7980,1170,390,1939,0,-2.1351944107060183,USA,USA,Texas,TX,33.175806,-94.346699,,90403
South Casco,Cumberland,7853290090,2014-11-18,515000,white,4,2,2,False,0,3,7,2890,7306,2890,0,2006,0,10.454115938738429,USA,USA,Maine,ME,43.876736,-70.512938,,33435
Aleppo,Greene,6979900390,2014-05-29,565000,light blue,4,2,2,False,0,3,8,2440,22594,2440,0,1996,0,9.426682143819443,USA,USA,Pennsylvania,PA,39.824647,-80.457918,,46307
Brashear,Adair,8024200625,2015-02-05,414500,light pink,3,1,1,False,0,3,7,1050,6002,840,210,1941,0,9.6904366434375,USA,USA,Missouri,MO,40.195890999999996,-92.43325300000001,,49503
Commerce,Hunt,8892900210,2014-06-09,236000,gray,3,1,1,False,0,3,7,1330,6301,1330,0,1998,0,4.879833042743057,USA,USA,Texas,TX,33.2493,-95.90968000000001,,11727
Ash,Brunswick,203600470,2015-04-09,620000,light blue,4,2,2,False,0,3,9,2690,32780,2690,0,1998,0,-1.1902845903356478,USA,USA,North Carolina,NC,34.065871,-78.505637,,56401
Edmonton,,8648220150,2014-05-07,226500,yelow,3,1,1,False,0,3,7,1640,10762,1130,510,1988,0,4.358613355358796,Canada,CAN,,,49.41662,-115.9688,Salesbury Creek,P1H 9C5
Toronto,,9352900200,2015-04-07,285000,light pink,3,2,3,False,0,3,7,1320,955,1320,0,2009,0,6.037207966597222,Canada,CAN,,,44.25365,-76.95385999999999,Napanee Railway Station,R1N 2Y8
Mineral City,Tuscarawas,3275760190,2014-06-24,600000,Null,4,1,1,False,0,5,7,1740,7700,1740,0,1968,0,9.299276182777778,USA,USA,Ohio,OH,40.625686,-81.354561,,48076
Pinecrest,Tuolumne,3332000091,2015-02-24,320000,white,3,1,1,False,0,3,6,1190,4120,1190,0,1929,0,8.879982560891202,USA,USA,California,CA,38.341062,-119.865195,,02062
Mapaville,Jefferson,3925000020,2015-02-24,265000,light gray,3,2,1,False,0,3,7,1690,9516,1690,0,1997,0,9.708777645092592,USA,USA,Missouri,MO,38.248889,-90.483333,,21236
Toronto,,3211600650,2014-07-22,275000,pink,3,1,1,False,0,3,7,1000,8018,1000,0,1969,0,9.87791347449074,Canada,CAN,,,47.65015,-80.94978,Wapus Creek,B1X 3H0
Toronto,,1336800185,2014-06-17,1185000,gray,3,2,2,False,0,5,9,2500,5568,2500,0,1905,0,6.929697748090278,Canada,CAN,,,45.57338,-78.14654,Sonia Lake,B1K 8C1
Westlake,Cuyahoga,1822079046,2015-05-04,500000,white,3,2,1,False,0,4,8,3040,41072,1520,1520,1978,0,-1.4592346700347218,USA,USA,Ohio,OH,41.453459,-81.92177099999999,,91387
St_Johns,,880000205,2014-07-29,249000,Null,3,2,2,False,0,3,7,1260,1125,810,450,2011,0,2.100155566203703,Canada,CAN,,,47.533190000000005,-52.84805,Nevilles Pond,N3A 0E3
Toronto,,5141000571,2014-08-25,267000,white,1,1,1,False,0,4,6,800,2480,800,0,1919,0,5.091176039270833,Canada,CAN,,,45.082640000000005,-76.28867,Quinn Settlement,A2H 6E1
Berlin,,1829300270,2014-08-21,715000,light gray,4,2,2,False,0,3,10,2780,13521,2780,0,1987,0,1.922666642175926,Germany,DEU,,,51.52388,6.68647,Orsoy,87066
Alliance,Box Butte,7977201065,2015-03-05,740000,gray,3,1,1,False,0,2,7,1380,4590,930,450,1950,0,2.8951041425925936,USA,USA,Nebraska,NE,42.114943,-102.88804499999999,,01906
Destrehan,Saint Charles,9406540130,2015-04-03,489000,yelow,4,2,2,False,0,3,9,3910,8442,2710,1200,2000,0,4.130690913414352,USA,USA,Louisiana,LA,29.965790000000002,-90.373982,,15317
Keene,Coshocton,7852010670,2014-07-09,692500,black,4,2,2,False,0,3,9,3710,7984,3710,0,1999,0,3.49316513599537,USA,USA,Ohio,OH,40.345,-81.86833299999999,,15146
Bantry,Mchenry,3126049094,2014-11-12,392450,yelow,4,2,1,False,0,3,7,2195,2681,1060,1135,1912,0,-1.4114877259953702,USA,USA,North Dakota,ND,48.511875,-100.789445,,55021
Toronto,,6661200050,2014-05-28,175000,gray,2,1,1,False,0,3,7,830,2699,830,0,1996,0,1.545540825520834,Canada,CAN,,,46.5156,-74.55906,Lac Cato,B1X 5X3
Gervais,Marion,4025300195,2015-03-18,685000,yelow,4,2,2,False,0,3,8,2820,10125,2820,0,2008,0,-2.781447971377315,USA,USA,Oregon,OR,45.108645,-122.896185,,02149
Duluth,Saint Louis,2450000295,2014-10-07,1088000,blue,3,2,2,False,0,3,8,2920,8113,2920,0,1950,2010,1.5556609407060182,USA,USA,Minnesota,MN,47.094431,-91.846731,,34952
Toronto,,3797001702,2014-12-16,1065000,white,5,3,2,False,0,3,9,2920,3000,2260,660,2014,0,-1.367288019085648,Canada,CAN,,,44.28342,-76.26608,Howe Island,J5W 8P0
Regina,,7129300175,2014-07-01,406000,yelow,4,1,1,False,2,4,7,1580,8475,1580,0,1928,0,1.016306562094907,Canada,CAN,,,55.85018,-102.05074,Macauley Island,B1E 7R0
Edmonton,,9346700150,2014-07-02,552000,light gray,3,2,1,False,0,3,9,1840,9900,1840,0,1978,0,7.4733748559837965,Canada,CAN,,,54.36662,-119.95278,Flume Creek,B2H 4P8
Colton,Henry,9325200110,2014-09-09,569950,light gray,5,4,2,False,0,3,8,3380,7805,3380,0,2014,0,6.777177375162037,USA,USA,Ohio,OH,41.464721999999995,-83.9525,,21157
Bulan,Perry,7888400560,2014-10-02,208000,light pink,4,2,1,False,0,3,7,1810,8677,1810,0,1962,0,2.154775836284722,USA,USA,Kentucky,KY,37.328174,-83.158487,,11580
Mc Intosh,Torrance,5416500660,2015-04-30,426500,gray,4,2,2,False,0,3,9,2960,4640,2960,0,2005,0,-0.3138615367361111,USA,USA,New Mexico,NM,34.852222,-106.043056,,02135
Fairview,Newton,2558660290,2015-02-18,437500,blue,3,2,1,False,0,4,7,1790,7700,1340,450,1976,0,6.164070195474538,USA,USA,Missouri,MO,36.825419000000004,-94.09120300000001,,64151
Berlin,,7968000120,2014-05-09,290000,light blue,4,2,1,False,0,4,7,2000,13300,1200,800,1968,0,3.690571860451389,Germany,DEU,,,50.950109999999995,9.977160000000001,Wildeck,45005
Kernersville,Forsyth,8665900295,2015-04-23,439500,black,3,2,1,False,0,3,7,1600,6510,940,660,1983,0,3.7268186041550915,USA,USA,North Carolina,NC,36.116534,-80.083115,,11714
Berlin,,2561360120,2014-05-27,475000,white,3,2,1,False,0,4,7,1230,11502,1230,0,1984,0,0.7674599666898148,Germany,DEU,,,51.23333,7.5166699999999995,Löh,83792
Peru,Chautauqua,2652501630,2015-05-04,626700,yelow,3,1,1,False,0,3,7,1410,3600,1410,0,1906,0,7.938987982789352,USA,USA,Kansas,KS,37.056823,-96.140376,,35758
Waukee,Dallas,2171400218,2015-04-16,245000,light blue,4,1,1,False,0,3,6,1280,8000,1280,0,1960,0,0.3769974778935185,USA,USA,Iowa,IA,41.592959,-93.85916,,12065
Toronto,,745530040,2014-09-11,845950,light gray,5,2,2,False,0,3,9,4450,9600,3650,800,2014,0,4.1809664927777765,Canada,CAN,,,49.66806,-74.03556,Lac Odin,J8B 2M1
Jones Mill,Hot Spring,3330500875,2014-12-26,381156,Null,2,1,1,False,0,4,7,1320,3090,1320,0,1908,0,0.8273631869444446,USA,USA,Arkansas,AR,34.453624,-92.861975,,46804
Vancouver,,7539900040,2014-07-28,625000,blue,4,2,1,False,0,3,8,1750,9000,1410,340,1977,2003,3.7202268375,Canada,CAN,,,54.382940000000005,-128.63673,Coldwater Creek,A2A 8R9
Taneytown,Carroll,5476200160,2014-07-25,164808,light pink,3,1,1,False,0,3,7,1250,5411,1250,0,1980,0,5.78062043587963,USA,USA,Maryland,MD,39.665797999999995,-77.16905799999999,,07960
Marion,Lamoure,8562750320,2014-11-10,580500,pink,3,2,2,False,0,3,8,2320,3980,2320,0,2003,0,10.74581473038194,USA,USA,North Dakota,ND,46.571587,-98.253327,,01923
Toronto,,7347600490,2014-08-14,245000,gray,3,2,1,False,0,3,6,2040,13125,810,1230,1910,0,3.4000523324189817,Canada,CAN,,,47.05284,-75.44824,Lac Normand,K1G 5B9
Arona,Westmoreland,8661000033,2014-06-27,235000,pink,3,1,1,False,0,3,7,1400,6300,1400,0,1998,0,7.005413754560185,USA,USA,Pennsylvania,PA,40.267990000000005,-79.659104,,27526
Dansville,Livingston,1839910470,2015-04-08,450000,yelow,3,1,1,False,0,5,7,1540,7490,1540,0,1971,0,4.125318875243057,USA,USA,New York,NY,42.569975,-77.71090699999999,,14075
Beatty,Nye,923000414,2015-04-19,670000,light blue,3,1,1,False,0,3,8,1850,8160,1850,0,1952,0,-0.9414817536805556,USA,USA,Nevada,NV,36.908611,-116.75833300000001,,43560
Pine Grove,Amador,3423059153,2014-10-08,785000,light blue,4,3,1,False,0,5,8,3370,100681,1920,1450,1977,0,-1.457991076828704,USA,USA,California,CA,38.396783,-120.64371299999999,,53204
Westchester,Cook,3668000670,2015-03-27,200000,white,3,2,1,False,0,4,7,1430,7905,1430,0,1988,0,2.2138290095833333,USA,USA,Illinois,IL,41.852368,-87.884488,,30701
Du Pont,Clinch,5126310110,2014-07-22,540000,yelow,4,2,2,False,0,3,8,2600,9935,2600,0,2005,0,4.361018164016204,USA,USA,Georgia,GA,30.999996000000003,-82.855518,,19063
Crenshaw,Panola,3211200460,2014-08-06,389000,pink,4,1,1,False,0,4,7,1520,9800,1520,0,1971,0,9.708399706736113,USA,USA,Mississippi,MS,34.453965999999994,-90.185524,,11795
Mc Coll,Marlboro,809002435,2014-08-08,725000,gray,3,2,1,False,0,5,7,1940,4000,1940,0,1906,0,6.821960930092592,USA,USA,South Carolina,SC,34.670406,-79.559741,,21701
Toronto,,8838900167,2014-05-09,542500,white,4,2,2,False,0,4,8,2330,14289,2330,0,1978,0,6.686673796655092,Canada,CAN,,,47.87795,-75.42591999999999,Barrage Drury,J9E 2R1
Bena,Cass,4217400120,2014-11-25,978000,pink,3,1,1,False,0,3,9,2390,4000,1690,700,1936,0,4.806656998055557,USA,USA,Minnesota,MN,47.347732,-94.251921,,14094
Toronto,,6699300330,2015-05-13,372000,light pink,5,2,2,False,0,3,8,2840,6010,2840,0,2003,0,3.76700972287037,Canada,CAN,,,46.38975,-72.39381,Ruisseau Tourigny,T9A 8E1
Levan,Juab,4167800130,2015-05-01,310000,green,5,2,1,False,2,4,8,2600,9600,1810,790,1969,0,7.082481575150462,USA,USA,Utah,UT,39.558611,-111.86111100000001,,21234
Essex,Essex,2214800630,2014-11-05,239950,white,3,2,2,False,0,4,7,1560,8280,1560,0,1979,0,2.315631797604166,USA,USA,Massachusetts,MA,42.628629,-70.782794,,07450
Coal City,Raleigh,2767602855,2015-04-29,750000,white,5,3,3,False,0,3,9,2160,2323,2160,0,2007,0,10.55485427111111,USA,USA,West Virginia,WV,37.666111,-81.184444,,21044
Toronto,,6123000225,2014-06-25,260000,white,3,1,1,False,0,3,7,1580,8184,1140,440,1954,0,0.7553448832407408,Canada,CAN,,,45.265679999999996,-72.14629000000001,Magog,E4J 1Y0
Star Prairie,Polk,225039175,2014-05-13,525000,light pink,5,3,2,False,0,3,7,2450,4591,2450,0,1994,0,8.709241153067131,USA,USA,Wisconsin,WI,45.2013,-92.551353,,60201
Berlin,,7202290320,2014-10-24,440500,gray,3,2,2,False,0,3,7,1600,3172,1600,0,2002,0,0.5172953446990739,Germany,DEU,,,53.45939,8.44625,Hoffe,29076
Vancouver,,8835900010,2014-08-04,579000,light blue,3,1,1,False,1,3,8,1590,5400,1280,310,1948,0,2.0981634768402784,Canada,CAN,,,56.24974,-127.27038999999999,Jake Creek,V3N 0C8
Toronto,,7843500090,2014-08-22,299500,light gray,4,2,2,False,0,3,8,2010,12085,2010,0,1986,0,0.9305606975,Canada,CAN,,,46.22972,-77.07861,Lac Michaud,E7C 8V7
Box Springs,Talbot,3826500570,2014-08-29,275000,light blue,3,1,1,False,0,3,8,1490,8000,1490,0,1978,0,8.859621088090277,USA,USA,Georgia,GA,32.565562,-84.612951,,11787
New Tazewell,Claiborne,7549802030,2014-11-04,400000,light gray,4,1,1,False,0,4,7,1850,6480,1120,730,1958,0,1.3045786553125,USA,USA,Tennessee,TN,36.4425,-83.599722,,46077
Olancha,Inyo,2387400120,2014-09-29,650000,yelow,4,2,2,False,0,3,9,2500,6005,2500,0,2001,0,-0.4444167925810185,USA,USA,California,CA,36.320833,-118.02555600000001,,19002
Winnipeg,,1326039061,2014-10-20,429950,light pink,3,1,1,False,0,5,7,1430,9750,1430,0,1962,0,0.2813535318518519,Canada,CAN,,,50.21675,-91.98358,Manitou Rapids,V9X 7H5
Williamsburg,Williamsburg City,6448600060,2015-02-26,1550000,blue,5,2,2,False,0,4,9,2450,20805,2450,0,1963,0,1.808895014699074,USA,USA,Virginia,VA,37.2732,-76.7194,,20877
Bude,Franklin,7701930010,2014-05-30,489000,gray,3,2,2,False,0,3,9,2260,19821,2260,0,1994,0,9.245592305555556,USA,USA,Mississippi,MS,31.462778000000004,-90.85,,60103
Toronto,,5363200100,2014-10-20,897000,black,4,2,2,False,0,3,9,2820,6120,2820,0,2014,0,5.042055404270833,Canada,CAN,,,45.63337,-82.23312,Timber Bay,E6L 4V3
Halifax,,9353300220,2015-04-08,285000,light pink,3,1,1,False,0,4,6,950,10723,950,0,1959,0,0.5794981819907408,Canada,CAN,,,44.73346,-64.22693000000001,Anderson Lake,J0B 4C2
West Point,Clay,8964800025,2015-02-26,1965000,black,5,3,1,False,3,4,9,3940,13738,3940,0,1951,0,1.271833943449074,USA,USA,Mississippi,MS,33.626496,-88.68226,,02186
Winnipeg,,2426039123,2015-01-30,2415000,yelow,5,4,2,False,2,3,13,7880,24250,7880,0,1996,0,9.2682496809375,Canada,CAN,,,49.4768,-91.84121,Little Butler Lake,E4J 9C8
Newton,Catawba,6072760670,2014-12-03,652450,light gray,3,2,1,False,0,5,8,2230,11835,1630,600,1974,0,-0.08894987591435186,USA,USA,North Carolina,NC,35.649766,-81.24254599999999,,60446
Toronto,,6430500086,2015-01-16,341000,yelow,3,1,1,False,0,3,7,940,4200,940,0,1955,0,1.34185556150463,Canada,CAN,,,46.865559999999995,-74.09306,Lac Dépôt,J9E 3H0
Wall,Pennington,1626079012,2015-02-25,439950,light pink,3,1,1,False,0,3,7,1720,223377,1240,480,1950,0,10.2079422825,USA,USA,South Dakota,SD,43.981232,-102.22454599999999,,32958
Rockfall,Middlesex,1239400064,2015-03-04,895000,yelow,4,2,2,False,0,3,9,2850,8526,2850,0,1998,0,6.298621931215278,USA,USA,Connecticut,CT,41.534094,-72.699674,,02368
Berlin,,4014400237,2014-05-23,132500,light gray,3,1,1,False,0,3,7,1080,10500,1080,0,1967,0,2.628837822627315,Germany,DEU,,,47.634609999999995,12.10609,Kleiner Brünnberg,12016
De Mossville,Pendleton,1875500060,2014-07-31,395000,green,3,2,2,False,0,3,7,1890,14040,1890,0,1994,0,10.324403977766199,USA,USA,Kentucky,KY,38.75165,-84.470802,,07017
Delaplane,Fauquier,1137300340,2014-11-21,674250,yelow,4,2,1,False,0,4,9,2780,35000,2780,0,1985,0,2.4480732651388895,USA,USA,Virginia,VA,38.915,-77.920556,,34491
Berlin,,3586500770,2014-09-23,808000,light pink,3,1,1,False,0,3,8,2590,32380,2590,0,1951,1994,-1.276791678217593,Germany,DEU,,,48.76362,9.20576,Fernmeldeturm Stuttgart,57007
Berlin,,1953400520,2014-11-14,265500,white,3,1,1,False,0,3,7,1860,9225,1860,0,1957,0,3.260952645104167,Germany,DEU,,,48.76615,11.92639,Mantelkirchen,50101
Hamer,Jefferson,5706200060,2014-08-18,399950,light gray,3,1,1,False,0,3,7,1020,18050,1020,0,1969,0,9.686961187604167,USA,USA,Idaho,ID,43.930751,-112.18718899999999,,32780
Mosheim,Greene,2877102345,2014-10-27,511718,yelow,2,1,1,False,0,3,6,1700,5000,850,850,1915,0,0.8727466470138888,USA,USA,Tennessee,TN,36.183883,-82.967399,,84067
Laurel,Howard,3274800460,2014-05-20,387000,light gray,2,2,2,False,0,3,8,1230,1280,960,270,2012,0,9.310383666550926,USA,USA,Maryland,MD,39.120806,-76.84345,,46514
Halifax,,984000130,2014-12-23,325000,light gray,4,2,2,False,0,4,7,1920,11603,1920,0,1967,0,5.308401495358797,Canada,CAN,,,44.51599,-65.67589,O'Brien Lake,E5T 4M9
Berlin,,2324800350,2014-05-06,860000,blue,4,2,2,False,0,3,9,3740,32417,3740,0,2000,0,5.125386169918981,Germany,DEU,,,48.2827,11.5682,Victor's Residenz-Hotel Muenchen,75764
Berlin,,1376800220,2014-07-09,425000,gray,2,1,1,False,0,3,7,1320,8830,1020,300,1939,0,-2.8872022969212963,Germany,DEU,,,51.23333,7.13333,Bahnhof Wuppertal-Küllenhahn,23820
Seaforth,Redwood,1545801630,2014-07-21,233000,white,3,2,1,False,0,3,7,1350,7686,1350,0,1989,0,8.882787446168981,USA,USA,Minnesota,MN,44.490536,-95.297768,,01930
Berlin,,4023500990,2014-06-17,260000,light pink,3,1,1,False,0,2,7,1270,20700,1150,120,1948,0,7.978234223935185,Germany,DEU,,,47.69005,9.18812,Steigenberger Insel,61559
Regina,,2909310060,2015-01-09,319000,black,4,2,2,False,0,3,7,2020,5100,2020,0,2010,0,0.1950884666550926,Canada,CAN,,,52.16669,-103.5343,Kelvington,J0V 4P9
Vancouver,,301402120,2014-06-25,240000,white,3,2,2,False,0,3,7,1481,2820,1481,0,2012,0,6.684995491574074,Canada,CAN,,,50.16628,-127.76983,Doom Mountain,E8T 3H0
Berlin,,7767400060,2014-11-19,465000,yelow,4,2,1,False,0,4,8,2300,7314,1420,880,1979,0,1.5359796251041669,Germany,DEU,,,53.11666999999999,7.58333,Buchweizenkamp,90308
Berlin,,4400200060,2014-10-21,650000,yelow,5,2,1,False,0,3,7,1910,4667,1010,900,1908,0,9.96895692363426,Germany,DEU,,,48.86287,10.02862,Degenhof,27240
Cookeville,Putnam,3810000565,2014-07-02,255000,light pink,4,2,1,False,0,3,7,2430,8960,1430,1000,1960,0,7.976552263842592,USA,USA,Tennessee,TN,36.174261,-85.49531,,30542
Berlin,,629811600,2014-07-24,672800,light gray,4,2,2,False,0,3,9,2740,10533,2740,0,1997,0,5.697210369108796,Germany,DEU,,,48.54671,12.89713,Kölblöd,54000
Hulls Cove,Hancock,5127001600,2014-11-06,331500,white,4,1,1,False,0,4,7,1820,14319,1820,0,1969,0,2.115288061990741,USA,USA,Maine,ME,44.419167,-68.251111,,27292
Rochelle,Wilcox,5041300100,2014-07-10,639000,white,4,2,1,False,0,4,7,1840,5419,920,920,1942,0,0.4456544076273148,USA,USA,Georgia,GA,31.949119,-83.444978,,29301
St_Johns,,3022079087,2014-05-21,712000,green,4,2,2,False,0,3,9,3400,247421,3400,0,2001,0,8.683691464131945,Canada,CAN,,,47.56671,-58.981869999999994,Eastern Passage,G5J 3A4
Vancouver,,3964400470,2014-07-25,500000,light blue,3,1,1,False,0,3,7,2150,4000,1470,680,1928,0,-0.1033392219560185,Canada,CAN,,,49.76639,-122.16931000000001,Port Douglas,E8E 1A5
Flournoy,Tehama,6143600580,2014-05-05,184000,light pink,3,1,1,False,0,4,7,1490,10125,1490,0,1962,0,5.370978058819443,USA,USA,California,CA,39.920556,-122.435,,33952
Berlin,,7212660520,2015-03-26,280000,pink,4,2,1,False,0,3,7,1600,6861,1600,0,1994,0,5.400385216481482,Germany,DEU,,,49.91602,7.076639999999999,Bernkastel-Kues,61629
Timmonsville,Florence,6021502070,2015-05-08,600000,yelow,2,1,1,False,0,3,7,1410,4500,1020,390,1939,0,1.4392381963773149,USA,USA,South Carolina,SC,34.101240999999995,-79.937845,,54481
Hazel Hurst,Mckean,4178300040,2015-02-19,841000,light blue,4,2,2,False,0,4,9,3080,13870,3080,0,1981,0,9.907803847395833,USA,USA,Pennsylvania,PA,41.705833,-78.582778,,26301
Toronto,,8644300170,2014-07-03,600000,Null,5,2,2,False,0,4,8,3000,13899,3000,0,1975,0,-1.8368725907986108,Canada,CAN,,,46.48202,-77.57949,Lac Durand,H4C 8X0
Vancouver,,7202330920,2014-08-07,464000,white,3,2,2,False,0,3,7,1690,4898,1690,0,2003,0,-1.6374973704050932,Canada,CAN,,,49.6225,-123.08389,Utopia Lake,V9X 9L6
Dennehotso,Apache,7519001825,2015-01-08,455000,light gray,2,1,1,False,0,4,6,1070,5150,870,200,1908,0,-1.001846122951389,USA,USA,Arizona,AZ,36.777286,-109.861001,,61821
Powhatan,Powhatan,7551300060,2014-07-16,470000,pink,3,1,1,False,0,3,7,1010,5000,1010,0,1952,0,3.679041171666667,USA,USA,Virginia,VA,37.556442,-77.879761,,49855
Toronto,,8635750950,2014-06-07,568500,light pink,4,2,2,False,0,3,8,2460,4200,2460,0,1998,0,8.898653943518516,Canada,CAN,,,46.56675,-72.68242,Domaine-La Poudrière,N5C 7A4
Halifax,,2911700010,2015-03-03,1080000,light pink,3,2,2,False,2,3,8,2240,21477,2240,0,1995,0,5.713367261064816,Canada,CAN,,,44.40725,-66.20451,Grand Eddy Point,H9P 7X4
Westfield,Marquette,973600020,2014-10-02,482975,light pink,3,2,1,False,0,3,8,2130,8801,1370,760,1976,0,1.008071729189815,USA,USA,Wisconsin,WI,43.896788,-89.502015,,08043
Carson,Los Angeles,5104511630,2014-08-12,444000,black,4,3,2,False,0,3,8,2800,7198,2800,0,2002,0,8.161265267881943,USA,USA,California,CA,33.822967999999996,-118.26835200000001,,58501
Toronto,,9826700707,2014-10-28,492000,yelow,3,2,3,False,0,3,8,1690,1479,1420,270,2005,0,8.275536142314815,Canada,CAN,,,60.082919999999994,-69.83654,Qamanialuup Aarianga,A2B 3P8
Bob White,Boone,3575302345,2014-12-08,508500,pink,4,2,2,False,0,3,8,2520,12500,1720,800,1979,0,3.7410681966319435,USA,USA,West Virginia,WV,37.958711,-81.720884,,33028
Stony Point,Alexander,6113400047,2015-03-31,530000,light pink,4,2,1,False,1,4,7,2410,14985,1950,460,1965,0,3.5760757184027785,USA,USA,North Carolina,NC,35.866109,-81.064135,,34608
Dawson_Creek,,2424059018,2014-06-12,1070000,white,4,2,2,False,0,3,11,3270,35445,3270,0,1989,0,1.9627468959027783,Canada,CAN,,,54.79028,-120.47721999999999,Calliou Lake,E4G 6Y5
Toronto,,4447300165,2014-12-23,415000,light pink,2,1,1,False,0,3,7,760,4000,760,0,1944,0,-1.4337101326504633,Canada,CAN,,,48.8931,-70.71202,Lac de l'Apostrophe,T7S 0G0
Berlin,,1150000340,2014-11-18,645500,light pink,4,2,2,False,0,3,10,2390,9638,2390,0,1988,0,-0.2595496347222222,Germany,DEU,,,51.33259,7.86307,Balve,43373
Berlin,,1328300990,2014-08-05,317000,yelow,3,1,1,False,0,4,8,1530,7650,1530,0,1977,0,6.293334898865742,Germany,DEU,,,47.71014,9.688410000000001,Bodnegg,84169
Morris,Okmulgee,3942900115,2015-04-21,445000,light pink,3,1,1,False,0,3,8,1360,4998,1360,0,1968,2014,3.1351965977546286,USA,USA,Oklahoma,OK,35.661877000000004,-95.83185999999999,,02368
Halifax,,7202330530,2015-01-16,479000,light pink,3,2,2,False,0,3,7,1690,3322,1690,0,2003,0,8.564942032256942,Canada,CAN,,,45.58807,-60.96371,D'Escousse,E6G 7V2
Edmonton,,7436300180,2014-05-19,530000,white,3,3,2,False,0,3,9,2320,3174,2060,260,1997,0,5.311658333842593,Canada,CAN,,,52.8821,-118.07857,The Crimson Studio,V9L 1A1
Toronto,,8925100440,2015-03-23,925000,light pink,4,2,1,False,2,4,8,2110,6375,1600,510,1941,0,2.4810156537847217,Canada,CAN,,,46.88367,-73.39886,Pont de la Mastigouche,G0S 5N5
Berlin,,2473250400,2014-09-24,325000,white,4,2,1,False,0,4,7,1780,10622,900,880,1976,0,7.234921504479168,Germany,DEU,,,51.983579999999996,10.58405,Okerberge,71653
Halifax,,7284900098,2014-09-24,705000,yelow,3,2,1,False,3,3,9,2820,7200,1780,1040,1979,0,5.663267130474537,Canada,CAN,,,44.75015,-65.14881,Paradise Lake Flowage,T7V 8M8
Berlin,,1231000310,2014-08-12,713000,light gray,1,1,1,False,2,4,8,1180,4000,840,340,1910,0,7.3669463685648156,Germany,DEU,,,,,,
Toronto,,4458300190,2015-04-24,875000,yelow,3,2,1,False,0,3,8,1690,10592,1690,0,1973,2009,-0.4241071100231482,Canada,CAN,,,46.28085,-72.298,Ruisseau Oscar-Provencher,V1N 8R6
Berlin,,2011400710,2014-05-21,405000,Null,3,1,1,False,1,4,7,2470,9620,1570,900,1962,0,9.95189771738426,Germany,DEU,,,49.10938,9.148810000000001,Nordheim (Württ),48924
Berlin,,2291400341,2015-02-03,311600,white,3,2,3,False,0,3,7,1358,1196,1358,0,2007,0,-1.171205861284722,Germany,DEU,,,52.764540000000004,7.80227,Steinrieden,26211
Toronto,,7548800050,2015-04-21,550000,black,3,3,2,False,0,3,8,1580,1303,1340,240,2010,0,9.730488957418984,Canada,CAN,,,49.67389,-73.79666999999999,Lac Bruno,H9K 4X8
Chadbourn,Columbus,4046400440,2014-08-06,532500,pink,4,2,2,False,0,3,8,2490,8750,2040,450,1976,0,7.4020454117824075,USA,USA,North Carolina,NC,34.322303000000005,-78.826683,,60448
Amma,Roane,3260800190,2015-03-24,325000,light pink,3,2,2,False,0,3,8,2000,7205,2000,0,1998,0,6.4708715389120375,USA,USA,West Virginia,WV,38.545518,-81.253182,,07040
Toronto,,2895550050,2015-05-07,280000,gray,3,2,2,False,0,3,7,1550,4486,1550,0,2000,0,2.0228873540856482,Canada,CAN,,,45.40011,-79.01631,J. Albert Bauer Provincial Park,V9P 1A3
Glace_Bay,,3750606890,2014-06-26,220000,white,3,1,2,False,0,3,7,1660,15600,1660,0,1981,0,10.77119592021991,Canada,CAN,,,46.03344,-59.965140000000005,Mira Gut,L9S 9R6
Vancouver,,3845100160,2014-06-20,339990,black,3,2,2,False,0,3,8,2570,4600,2570,0,2014,0,-1.3586028135532409,Canada,CAN,,,50.98294,-127.11983000000001,Mount Ward,K8B 4C1
Veyo,Washington,2788500090,2014-12-19,309000,yelow,3,1,1,False,0,3,7,1820,8142,1040,780,1961,0,7.222183290405092,USA,USA,Utah,UT,37.358959999999996,-113.666758,,06457
Berlin,,9285800330,2014-07-02,732000,black,3,3,2,False,4,4,8,2670,6517,2020,650,1977,0,6.903251682453704,Germany,DEU,,,50.20247,6.67822,Dietzenley,74480
Mc Connellsville,Oneida,6121000090,2014-06-16,295000,white,3,1,1,False,0,3,7,1770,8235,1030,740,1960,0,7.119960461400463,USA,USA,New York,NY,43.289552,-75.652477,,20120
Spring Green,Sauk,7955040080,2014-11-04,665000,yelow,5,2,1,False,0,4,7,2330,8000,1550,780,1972,0,-0.8952280764814815,USA,USA,Wisconsin,WI,43.18835,-90.06760799999999,,58102
Vinton,Benton,4137050060,2014-11-04,280000,white,4,2,2,False,0,3,8,2050,7416,2050,0,1990,0,6.757386250775462,USA,USA,Iowa,IA,42.174284,-91.989154,,04103
Toronto,,6908200155,2015-01-22,1103990,light blue,4,3,2,False,2,3,9,2760,5040,2760,0,1955,2005,-1.435836289351852,Canada,CAN,,,46.07476,-72.83553,Falaise Penagôkw,H1W 1C8
Success,Texas,3739500096,2015-05-05,430000,yelow,3,2,1,False,0,4,6,1540,6000,1540,0,1953,0,1.079522834699074,USA,USA,Missouri,MO,37.480533,-92.003621,,71730
Toronto,,6181500120,2014-06-23,312891,light gray,5,3,2,False,0,3,8,2300,8214,2300,0,2013,0,-2.1163204098495365,Canada,CAN,,,,,,
Vancouver,,8691440220,2015-02-02,1289990,pink,5,4,2,False,0,3,10,4360,8030,4360,0,2015,0,10.21353138678241,Canada,CAN,,,51.856390000000005,-120.98666999999999,Chautemps Lake,J0R 4E7
Berlin,,2705600069,2015-05-01,514950,white,3,2,3,False,0,3,8,1310,1264,1310,0,2014,0,4.0985237592361115,Germany,DEU,,,47.70232,10.31675,Eich,52718
Deansboro,Oneida,3396200300,2015-03-31,540000,yelow,3,1,1,False,0,3,8,2110,7129,1280,830,1982,0,5.927903478842592,USA,USA,New York,NY,42.981788,-75.438309,,11779
Berlin,,8728100781,2014-05-16,375000,light blue,3,1,2,False,0,3,8,1100,1751,940,160,2007,0,4.1668699395486115,Germany,DEU,,,49.5369,12.1517,"Wernberg-Köblitz, Markt",60291
Stamford,Harlan,6021501535,2014-12-23,700000,white,3,1,1,False,0,3,8,1580,5000,1290,290,1939,0,8.47034887119213,USA,USA,Nebraska,NE,40.11625,-99.581405,,29680
Berlin,,8099600160,2015-04-29,488500,white,3,2,1,False,0,4,7,1710,10959,1030,680,1981,0,6.709701330787038,Germany,DEU,,,50.03315,10.94051,Leiterbach,69212
Hooker,Texas,9432900380,2014-10-23,280017,light pink,3,2,2,False,0,3,8,1850,8770,1850,0,1996,0,-1.4888207598148149,USA,USA,Oklahoma,OK,36.847981,-101.19068299999999,,48310
Berlin,,1797501275,2015-05-07,665000,white,5,2,2,False,0,4,7,2670,4000,1800,870,1914,0,7.254487101435187,Germany,DEU,,,51.01667,9.93333,Nentershausen,56432
Winnipeg,,5702330120,2014-06-03,222400,yelow,3,2,1,False,0,3,7,1200,9566,1200,0,1995,0,6.20960345167824,Canada,CAN,,,51.04943,-95.32941,South Atikaki Park Reserve,K4C 3M0
Berlin,,4137040060,2015-04-06,265500,black,3,2,1,False,0,3,8,1450,8977,1450,0,1990,0,8.90388388894676,Germany,DEU,,,52.27373,13.175460000000001,Jütchendorf,73276
Toronto,,1773100967,2015-02-23,299999,light gray,3,2,2,False,0,3,7,1350,1234,1160,190,2007,0,-2.5358043209027783,Canada,CAN,,,57.68533000000001,-69.55756,Askwataskupich,K9K 6G3
Refugio,Refugio,2769601250,2015-05-12,550000,black,2,1,1,False,0,3,7,1420,3100,820,600,1924,0,1.363467100416667,USA,USA,Texas,TX,28.316944,-97.27666500000001,,20109
Toronto,,7760400900,2014-09-16,279000,light blue,4,2,2,False,0,3,7,2040,8076,2040,0,1994,0,4.159255095393519,Canada,CAN,,,45.981390000000005,-74.53083000000001,Lac des Écorces,E7A 4M8
Basco,Hancock,6813600415,2014-05-08,515000,light blue,2,1,1,False,0,3,7,1060,4960,1060,0,1926,0,3.515576690266204,USA,USA,Illinois,IL,40.328303000000005,-91.19698299999999,,11580
Dairy,Klamath,9828202545,2015-01-27,490000,light blue,3,1,1,False,0,4,8,1970,3400,1420,550,1929,0,0.4752060576041666,USA,USA,Oregon,OR,42.258140999999995,-121.642453,,08807
Berlin,,98000960,2014-05-13,1050000,white,4,3,2,False,0,3,11,4400,16625,4400,0,2003,0,1.9720648659027782,Germany,DEU,,,47.98455,12.579930000000001,Gigling,69247
Pelham,Shelby,3307700150,2015-04-13,950000,black,3,1,1,False,0,4,7,1720,9830,1720,0,1946,0,10.085643812581019,USA,USA,Alabama,AL,33.31046,-86.80617600000001,,34952
Berlin,,7203220030,2014-07-24,963990,gray,4,3,2,False,0,3,9,3830,6765,3830,0,2014,0,-1.149851579733796,Germany,DEU,,,50.06393,10.800989999999999,Schloss Rentweinsdorf,60537
Baxter,Crow Wing,4217401195,2015-03-03,920000,yelow,5,2,1,False,0,3,8,2730,6000,2130,600,1927,0,7.424939800972222,USA,USA,Minnesota,MN,,,,
Russells Point,Logan,3423600025,2015-03-05,825050,yelow,4,3,2,False,0,3,9,2860,3680,1980,880,1925,1993,3.3357372235185183,USA,USA,Ohio,OH,40.474956,-83.879825,,85326
Ellington,Reynolds,2770601595,2015-03-20,415000,white,2,1,1,False,0,3,6,1470,6000,900,570,1944,0,6.664985414444446,USA,USA,Missouri,MO,37.239796999999996,-90.958851,,44224
Toronto,,993000327,2014-05-06,369950,white,3,2,3,False,0,3,8,1270,1320,1270,0,2006,0,1.2792700510995372,Canada,CAN,,,47.80194,-77.08194,Lac Oribus,N4B 3L6
Gibson,Gibson,7212660640,2015-03-26,333000,yelow,4,2,2,False,0,3,8,2400,7270,2400,0,1993,0,-1.120434575335648,USA,USA,Tennessee,TN,35.875278,-88.84666700000001,,02720
Toronto,,8097000250,2015-01-30,323400,light blue,4,3,1,False,0,3,8,2060,9138,1430,630,1992,0,2.976553744525463,Canada,CAN,,,45.53338,-73.9992,Saint-Joseph-du-Lac,G0B 2V3
Halifax,,1760650670,2014-08-12,270000,yelow,3,2,2,False,0,3,7,1400,3825,1400,0,2012,0,5.551520698969908,Canada,CAN,,,44.90335,-65.3476,Hampton,J5J 0M4
Whitelaw,Manitowoc,6905200050,2014-10-09,606400,white,3,3,1,False,2,3,8,1800,5000,1500,300,1929,0,2.060974227175926,USA,USA,Wisconsin,WI,44.157269,-87.826698,,20170
Toronto,,4321200600,2015-05-04,510000,light pink,4,2,1,False,3,3,7,2210,5572,1760,450,1911,0,6.822772567164353,Canada,CAN,,,47.08534,-78.34144,Lac Long,G0A 8C0
Cambridge_Bay,,6154900005,2014-09-24,665000,white,4,2,1,False,0,5,7,2420,7102,1670,750,1946,0,0.5110314754976852,Canada,CAN,,,69.21367,-113.81201000000001,James Island,P8N 9L0
Toronto,,2391600950,2014-05-02,439950,white,3,2,2,False,0,3,8,1770,2875,1770,0,1990,0,-1.9052729489004634,Canada,CAN,,,48.09111,-84.80167,Catfish Lake,H7R 9Y3
Toronto,,5292200010,2015-01-16,447500,light blue,4,2,2,False,0,3,7,1770,3332,1630,140,1924,1975,8.87435841741898,Canada,CAN,,,46.258379999999995,-74.87713000000001,Lac David,T8S 2A8
Toronto,,4122700040,2014-10-10,860000,Null,3,1,1,False,0,4,8,2600,15064,1700,900,1967,0,3.714797667361111,Canada,CAN,,,47.16583,-75.86389,Lac Mauran,R8A 6K8
Neola,Pottawattamie,3592500985,2015-05-04,880000,gray,4,2,2,False,0,3,9,2350,4675,2150,200,1923,0,4.3151696703935185,USA,USA,Iowa,IA,41.456383,-95.679358,,47711
Moncton,,2768300655,2015-03-17,630000,light blue,3,3,2,False,0,3,8,1880,2200,1520,360,2007,0,2.218502105023148,Canada,CAN,,,46.00014,-63.4987,Détroit de Northumberland,N0H 4Y4
Toronto,,2822100175,2014-08-27,284000,white,3,1,1,False,0,3,7,1430,4850,930,500,1978,0,-2.9556375483680566,Canada,CAN,,,42.0373,-82.6009,Comfort Inn Leamington,N9Y 9L3
Boyce,Rapides,1446800660,2015-03-16,276500,light pink,4,1,1,False,0,4,6,1400,6650,1400,0,1942,0,10.476576389826391,USA,USA,Louisiana,LA,31.321601,-92.68668100000001,,42431
Minerva,Essex,9822700190,2014-08-08,1280000,white,9,4,2,False,0,3,8,3650,5000,2530,1120,1915,2010,0.1707933874189815,USA,USA,New York,NY,43.781058,-73.983542,,49426
Toronto,,1081330210,2014-09-11,410000,pink,4,2,2,False,0,5,8,2150,27345,2150,0,1976,0,2.107529999155092,Canada,CAN,,,45.80944,-74.76278,Lac Papineau,T4S 3Y6
Lake Ariel,Wayne,9276201895,2014-08-20,615000,green,3,1,1,False,0,5,7,1900,5000,950,950,1951,0,2.567229094016203,USA,USA,Pennsylvania,PA,41.439476,-75.43125699999999,,06851
Spearsville,Union,2877102846,2014-06-25,575000,,0,0,0,True,0,0,0,0,0,0,0,0,0,10.177486260682869,USA,USA,Louisiana,LA,32.955022,-92.58698000000001,,44012
Highgate Center,Franklin,9429000170,2015-03-26,617950,light gray,4,2,2,False,0,3,8,2410,7950,2410,0,1997,0,2.1866111679282407,USA,USA,Vermont,VT,44.940395,-73.015468,,55068
Pequea,Lancaster,7165700110,2015-05-07,280000,pink,3,3,2,False,0,3,7,1390,1080,1140,250,2006,0,0.5196022909953704,USA,USA,Pennsylvania,PA,39.905765,-76.32086600000001,,11201
Berlin,,4037500335,2014-06-06,455000,light pink,4,2,1,False,0,4,7,1740,8449,1170,570,1958,0,7.464161675127313,Germany,DEU,,,50.03808,8.29242,Petersberg,34267
Berlin,,3755000060,2014-09-30,315500,yelow,3,1,1,False,0,4,7,1160,10500,1160,0,1966,0,8.453985477858796,Germany,DEU,,,54.416669999999996,8.96667,Eckhof,55739
Pindall,Searcy,9368700223,2015-02-02,310000,light gray,4,3,1,False,0,5,7,2010,7426,1090,920,1951,0,1.308693577731481,USA,USA,Arkansas,AR,36.067479,-92.886409,,07060
Rhodelia,Meade,7983200060,2015-04-24,230000,,3,1,1,False,0,4,7,1250,9774,1250,0,1969,0,4.81178591943287,USA,USA,Kentucky,KY,37.968538,-86.304079,,07866
Berlin,,7202270700,2014-10-03,597400,light blue,4,2,2,False,0,3,7,2420,4500,2420,0,2001,0,-2.036046500648148,Germany,DEU,,,54.365140000000004,10.29299,Probsteierhagen,67127
Eagan,Claiborne,6139100056,2014-10-23,378950,gray,4,2,1,False,0,5,7,1820,8400,1300,520,1956,0,6.925875221655092,USA,USA,Tennessee,TN,36.551944,-83.97694399999999,,30101
Loleta,Humboldt,880000189,2014-08-11,209000,light pink,3,2,2,False,0,3,7,1230,1340,1020,210,2003,0,7.84725517130787,USA,USA,California,CA,40.6531,-124.228826,,07052
Shortt Gap,Buchanan,9550202010,2014-07-10,775000,pink,6,2,1,False,0,3,7,2980,5000,2480,500,1916,0,4.634384471215278,USA,USA,Virginia,VA,37.157222,-81.873056,,48236
Henrieville,Garfield,9215400105,2015-04-28,450000,white,3,1,1,False,0,4,7,1250,5963,1250,0,1953,0,3.5819649149652784,USA,USA,Utah,UT,37.562778,-111.99361100000002,,27870
St_Johns,,3022800260,2014-10-07,439000,yelow,3,2,2,False,0,3,7,1680,2801,1680,0,2011,0,10.21496509866898,Canada,CAN,,,47.6167,-58.665240000000004,Fish Head,T4G 8L2
Rawlings,Allegany,7199350340,2014-08-25,460000,gray,3,1,1,False,0,3,7,1440,7070,1440,0,1980,0,7.70365889255787,USA,USA,Maryland,MD,39.521363,-78.906231,,37110
Aransas Pass,San Patricio,1524079093,2014-08-27,275000,white,3,1,1,False,0,3,7,1300,20700,1300,0,1962,0,-1.118044675266204,USA,USA,Texas,TX,27.909167,-97.149722,,43119
St_Johns,,4305600100,2014-12-22,570000,blue,4,2,2,False,0,3,8,3250,5600,3250,0,2011,0,-0.04546742188657408,Canada,CAN,,,47.59989,-52.84805,Hughs Pond,A1K 1S2
Berlin,,7857000732,2014-11-01,350000,white,3,1,1,False,0,3,7,2090,6258,1390,700,1956,0,1.1098528084143522,Germany,DEU,,,49.27259,9.82349,Falkenhof,74807
Old Ocean,Brazoria,3223049158,2015-04-17,222200,gray,2,1,1,False,0,3,7,1210,10000,1210,0,1953,0,7.490192191215278,USA,USA,Texas,TX,29.079721999999997,-95.749444,,78023
Yellowknife,,5096300130,2014-07-14,413000,pink,3,2,1,False,0,3,8,1520,3451,1520,0,1996,0,0.6732790514467593,Canada,CAN,,,63.63357,-113.60127,Frodsham Lake,T7V 6B6
Vancouver,,522059130,2015-04-29,465000,gray,3,1,1,False,0,5,7,1150,18200,1150,0,1959,0,2.42133508380787,Canada,CAN,,,51.083079999999995,-122.03601,Trimble Creek,G0H 3S0
,,7010700308,2014-11-12,1010800,light gray,4,3,2,False,0,3,9,3610,4000,2640,970,2007,0,7.933963818090278,Canada,CAN,,,51.00012,-58.664919999999995,Archipel de Kécarpoui,J3M 6T7
Glace_Bay,,9266700845,2015-04-29,325000,light pink,2,1,1,False,0,3,6,830,5100,830,0,1941,0,9.716960335451391,Canada,CAN,,,45.93672,-60.31763,MacKinnon Lake,T1X 3M7
Edmonton,,1062100115,2014-12-04,405000,black,3,2,1,False,0,4,7,1450,6081,1450,0,1969,0,6.404682906851853,Canada,CAN,,,51.96611,-111.76833,Clement Lake,G8J 0P5
Douglass,Nacogdoches,4136870110,2015-02-05,329800,yelow,4,2,2,False,0,3,8,2080,7047,2080,0,1996,0,3.395428211585648,USA,USA,Texas,TX,31.657846000000003,-94.869649,,32937
Toronto,,1568100380,2014-10-16,345000,pink,2,1,1,False,0,4,7,1160,8504,1160,0,1949,0,-1.6220797201041668,Canada,CAN,,,50.91679,-66.86544,Rivière Cacaoui,R9A 8E0
Berlin,,1257202430,2014-06-17,1008000,blue,4,3,2,False,0,3,9,2650,3060,2060,590,2001,0,-2.880376238576389,Germany,DEU,,,50.57983,11.94763,Thierbach,87834
Union,Mason,1338600185,2014-06-24,1157400,white,3,2,2,False,2,3,10,2740,5925,2740,0,1913,1992,-2.270498304629629,USA,USA,Washington,WA,47.351304999999996,-123.034364,,21227
Berlin,,7604410030,2015-01-21,375000,white,4,2,1,False,0,3,7,1890,5240,980,910,1981,0,10.70603448766204,Germany,DEU,,,50.03203,6.853560000000001,Lam Bach,35826
Whitehorse,,2595300210,2014-11-06,473600,pink,4,1,1,False,0,3,7,1780,8400,1080,700,1969,0,-1.035093730486111,Canada,CAN,,,54.54558000000001,-130.7246,Holliday Passage,N8A 5V1
Winnipeg,,255450030,2014-09-18,369946,white,3,2,2,False,0,3,8,2420,4725,2420,0,2014,0,5.206840014664351,Canada,CAN,,,50.1372,-95.36241,Turtle Lake,J3M 6Y9
Toronto,,7853280570,2014-06-04,765000,white,4,3,2,False,0,3,9,4410,5104,3400,1010,2006,0,5.530828011041668,Canada,CAN,,,46.51698,-73.94848,Lac Mignon,H5A 1S9
Toronto,,9541800190,2014-10-10,915000,black,5,2,1,False,4,4,9,3490,18850,1840,1650,1958,0,5.841889648113426,Canada,CAN,,,51.48349,-79.51616,Baie Chiyask,H3X 3V0
Winthrop,Kennebec,2206700215,2015-04-22,550000,gray,4,2,1,False,0,5,7,2070,9822,2070,0,1955,0,-2.9924746616435187,USA,USA,Maine,ME,44.314031,-69.973128,,13090
Moncton,,6792100090,2014-09-14,683000,light pink,4,2,2,False,0,3,9,2620,10489,2620,0,1990,0,8.377204866863424,Canada,CAN,,,45.25014,-67.39891,Island Hill,A2A 6X9
Whitehorse,,5126400230,2014-05-24,199000,light pink,2,1,1,False,0,5,6,720,7200,720,0,1943,0,9.170054316597222,Canada,CAN,,,61.83271,-135.92061999999999,Green Mountain,G8N 2L5
Berlin,,9445300045,2014-06-09,831000,yelow,4,2,1,False,0,4,7,2030,3905,1630,400,1926,0,2.412609165671296,Germany,DEU,,,48.388009999999994,12.92106,Wichtleiten,53662
Nabb,Clark,2212200500,2014-06-23,269500,light pink,3,1,1,False,0,4,7,1840,7412,1240,600,1976,0,4.907388034525463,USA,USA,Indiana,IN,38.612768,-85.521704,,60110
Colton,Whitman,1774230300,2015-03-06,615000,blue,3,2,1,False,0,4,8,2980,43301,1930,1050,1978,0,-1.2116210397685192,USA,USA,Washington,WA,46.590098,-117.169243,,47906
Berlin,,7589700106,2014-10-14,460000,white,2,1,1,False,0,4,8,1790,3760,1280,510,1928,0,4.310295339131945,Germany,DEU,,,50.926970000000004,7.172389999999999,Überhöfe,67741
Chickamauga,Walker,2473411240,2015-03-24,329950,light gray,4,1,1,False,0,3,8,1740,7208,1740,0,1976,0,5.242570878854167,USA,USA,Georgia,GA,34.857963,-85.322136,,20601
Upton,Weston,8731980440,2014-10-16,355000,white,5,2,1,False,0,4,8,2344,8000,1560,784,1976,0,10.706684095775461,USA,USA,Wyoming,WY,44.089271000000004,-104.635159,,85365
Magnolia,Pike,8085400355,2014-12-04,1270000,Null,5,3,1,False,0,3,9,3950,9520,2250,1700,1953,2002,-1.934386824189815,USA,USA,Mississippi,MS,31.121745,-90.48311,,23185
Woodlake,Tulare,1775800290,2014-08-01,354000,gray,3,1,1,False,0,3,7,1260,12330,1260,0,1968,0,1.491312605625,USA,USA,California,CA,36.431334,-119.09176399999998,,11727
Renault,Monroe,414100295,2014-06-23,275000,yelow,2,1,1,False,0,4,6,1180,6552,1180,0,1949,0,-1.3382847354513892,USA,USA,Illinois,IL,38.170396000000004,-90.095043,,12533
Berlin,,2310100240,2014-12-18,315000,white,3,2,2,False,0,3,8,2240,6097,2240,0,2002,0,-2.3680532809375,Germany,DEU,,,47.95636,9.10355,Wackershofen,24784
Rector,Clay,321079066,2015-04-23,430000,white,3,1,1,False,0,3,7,1810,349351,1810,0,2002,0,-1.8653372065856482,USA,USA,Arkansas,AR,36.267177000000004,-90.270201,,37601
Toronto,,7787920080,2014-06-16,492500,yelow,5,2,2,False,0,3,8,2570,9962,2570,0,2006,0,-0.1998787164814815,Canada,CAN,,,48.50018,-78.53286999999999,Manneville,L7C 5E6
Alpena,Boone,2570500230,2014-05-29,400000,yelow,5,2,1,False,0,4,7,1930,9747,1020,910,1962,0,10.70818537686343,USA,USA,Arkansas,AR,36.299768,-93.2792,,60439
Edmonton,,4024100915,2014-12-31,689000,yelow,4,2,2,False,0,3,9,3250,10000,3250,0,2014,0,-1.7906834141203702,Canada,CAN,,,52.37583,-116.92667,Lower Longview Lake,G0S 6N7
Regina,,6450302546,2014-10-21,130000,Null,2,1,1,False,0,3,7,840,6654,840,0,1951,0,3.47216842125,Canada,CAN,,,59.633630000000004,-108.81811,Rae Bay,E6C 6G8
La Pointe,Ashland,3670500710,2014-07-15,405500,gray,3,1,1,False,0,5,7,1010,8108,1010,0,1954,0,1.7021869553356481,USA,USA,Wisconsin,WI,46.846675,-90.603622,,11727
Holy City,Santa Clara,203100625,2014-05-29,672000,Null,3,2,2,False,0,3,7,2620,21587,2620,0,1992,0,-1.010036733738426,USA,USA,California,CA,37.156944,-121.977778,,39532
Berlin,,5207200160,2014-10-10,490000,white,3,2,1,False,0,3,8,2380,6000,2040,340,1961,0,4.8808173887615744,Germany,DEU,,,52.00768,7.92572,Hörste,76545
Brandon,Buchanan,2991000400,2014-07-23,272000,light gray,3,2,2,False,0,3,8,1790,6371,1790,0,1998,0,-2.706283113622685,USA,USA,Iowa,IA,42.330912,-92.005892,,14850
Cotton,Saint Louis,461002551,2014-10-04,330600,black,1,1,1,False,0,3,7,580,1799,580,0,1908,2005,6.121761638495371,USA,USA,Minnesota,MN,47.163803,-92.444921,,01453
West Springfield,Hampden,522059299,2015-02-04,300000,blue,3,1,1,False,0,4,7,1280,12776,1280,0,1977,0,4.74941303625,USA,USA,Massachusetts,MA,42.115066,-72.641109,,35124
Norwalk,Warren,3313600266,2015-02-13,190000,black,3,1,1,False,0,3,7,1180,8775,1180,0,1966,0,1.949011397905092,USA,USA,Iowa,IA,41.486055,-93.657332,,20772
Glace_Bay,,5700000275,2014-05-28,635000,yelow,3,2,1,False,0,4,8,2300,5500,2000,300,1921,0,3.0370581012615734,Canada,CAN,,,45.91478,-60.12285,MacAuley Lake,K4R 3G9
Village Mills,Hardin,1202000200,2014-11-03,233000,light pink,3,2,1,False,0,5,6,1710,4697,1710,0,1941,0,6.378463060972222,USA,USA,Texas,TX,30.493610999999998,-94.397222,,95050
Union City,Hudson,1402950190,2014-09-16,321000,yelow,4,2,2,False,0,3,8,2430,5366,2430,0,2002,0,9.544270561712962,USA,USA,New Jersey,NJ,40.768153000000005,-74.030558,,11414
Mineral,Tehama,4307330050,2014-07-21,439900,light blue,5,3,2,False,2,3,7,3390,7950,3390,0,2003,0,1.082881518854167,USA,USA,California,CA,40.328826,-121.52480700000001,,02864
Berlin,,520700125,2014-08-05,437000,yelow,3,2,1,False,0,3,7,1980,8775,1290,690,1959,0,2.402482087418981,Germany,DEU,,,48.18333,12.41667,Weiher,39540
Berlin,,9558040230,2015-04-06,438800,black,4,2,2,False,0,3,9,2770,4432,2770,0,2004,0,2.633772245138889,Germany,DEU,,,52.29653,10.827689999999999,Uhrau,51130
Toronto,,5631500905,2014-07-23,272925,yelow,2,1,1,False,0,5,6,1280,5728,1280,0,1941,0,0.3365891396180555,Canada,CAN,,,46.653059999999996,-70.80700999999999,Saint-Lazare-de-Bellechasse,L7C 1J4
Toronto,,5469502660,2014-09-29,439950,black,4,2,1,False,0,4,8,2460,14600,1720,740,1977,0,0.7508646188078704,Canada,CAN,,,48.792970000000004,-76.50078,Lacs Twin,G3Z 6L4
Rural Hall,Forsyth,8712100320,2014-07-28,585000,light pink,5,2,1,False,0,3,8,2350,4178,1520,830,1922,2015,5.0074500517592595,USA,USA,North Carolina,NC,36.229251,-80.293643,,83651
Toronto,,3333000745,2015-04-17,350000,blue,4,2,2,False,0,3,7,1660,2500,1660,0,2007,0,-2.480024686400463,Canada,CAN,,,46.3525,-73.91833000000001,Lac Maguine,J0H 8B9
Halifax,,461005435,2015-02-02,519000,yelow,3,1,1,False,0,4,7,2000,5680,1080,920,1903,0,6.127637977453704,Canada,CAN,,,44.85015,-62.76534,Dukes Bog,E8E 9N9
Mitchellville,Polk,7504050090,2015-04-12,720000,black,3,2,2,False,0,3,11,2820,14250,2820,0,1991,0,9.333853302233797,USA,USA,Iowa,IA,41.66089,-93.36995,,16001
Fort_Nelson,,4438400050,2014-07-14,239000,white,2,1,1,False,0,4,6,710,14000,710,0,1953,0,7.578782334768517,Canada,CAN,,,58.032959999999996,-124.16971000000001,Mount Gary Powell,P2B 5J1
Blanc-Sablon,,2597300020,2014-11-13,725000,gray,5,2,1,False,1,4,9,3780,20000,1890,1890,1978,0,6.487562872280092,Canada,CAN,,,51.5501,-57.548140000000004,Ruisseau Crooked,T8L 4X1
Toronto,,6802200230,2015-02-09,220000,white,3,2,2,False,0,3,7,1430,9044,1430,0,1991,0,-2.451836638275463,Canada,CAN,,,44.80345,-76.49679,Little Silver Lake,E8E 9P9
Halifax,,3905040040,2015-02-26,464000,white,3,2,2,False,0,3,8,1770,5146,1770,0,1992,0,2.6976640810416668,Canada,CAN,,,43.84541,-64.84522,Southern Deep Lake,E8C 5V4
Republic,Republic,3336001946,2015-03-07,263300,blue,2,1,1,False,0,3,7,900,4500,900,0,1951,0,8.305982271400463,USA,USA,Kansas,KS,39.937571999999996,-97.843456,,12601
Toronto,,5259800440,2014-09-26,232000,gray,3,1,1,False,0,3,7,1290,6604,1290,0,1984,0,10.74115247019676,Canada,CAN,,,47.20528,-84.42611,Butter Lake,K1G 7T7
Winnipeg,,7011201306,2015-02-12,1120280,Null,4,4,3,False,2,3,9,2530,1774,2100,430,2013,0,8.201767830034722,Canada,CAN,,,49.30002,-93.75038,Bog Bay,E5H 4X9
Regina,,2420069268,2014-08-21,184900,white,2,1,1,False,0,5,6,1230,5000,1230,0,1911,0,-2.549085881747685,Canada,CAN,,,55.46686999999999,-107.80138000000001,Sandy Point,J9P 8H8
Enterprise,Catahoula,7399000360,2015-05-13,330000,light pink,4,1,1,False,0,4,8,1720,8300,1720,0,1965,0,-0.1332043889814815,USA,USA,Louisiana,LA,31.906412,-91.875149,,97603
Depew,Creek,5700002125,2014-06-10,480000,light blue,4,1,1,False,0,3,7,2320,4322,1140,1180,1910,0,10.64267582626158,USA,USA,Oklahoma,OK,,,,
Mauricetown,Cumberland,726049184,2014-07-21,294000,light pink,2,1,1,False,0,5,6,820,6366,820,0,1952,0,2.726798136273148,USA,USA,New Jersey,NJ,39.285833000000004,-74.993611,,29673
Rankin_Inlet,,1138010530,2015-04-29,399000,light pink,3,1,1,False,0,3,7,1340,7191,1340,0,1974,0,-0.9648972755208334,Canada,CAN,,,76.31832,-101.00265,Phillipps Island,L7C 8J3
Vancouver,,9268850040,2015-03-27,484000,yelow,3,2,3,False,0,3,8,1620,1425,1540,80,2009,0,8.565134009386574,Canada,CAN,,,50.294109999999996,-125.27856000000001,Chonat Lake,K2G 1K1
West Bridgewater,Plymouth,1424100100,2014-06-10,183000,gray,3,1,1,False,0,4,7,1330,9200,1330,0,1973,0,10.18175588501157,USA,USA,Massachusetts,MA,42.025511,-71.016054,,47274
Toronto,,9536601295,2014-10-07,340000,white,3,1,1,False,3,5,6,1730,11986,1730,0,1918,0,-0.6644864308912037,Canada,CAN,,,47.1306,-73.55958000000001,Lac Hy,K4K 2L4
Cogswell,Sargent,1624079104,2015-04-02,540000,white,3,2,2,False,0,3,8,2000,217800,2000,0,1996,0,7.45373381988426,USA,USA,North Dakota,ND,46.089106,-97.809543,,08094
Los_Angeles,,8121100415,2014-05-30,735000,white,4,3,1,False,0,4,8,2840,4120,2060,780,1931,0,-2.060043331018519,Canada,CAN,,,48.999829999999996,-117.66891000000001,Moris Creek,G6B 7T7
Berlin,,5641300220,2014-08-28,370000,light pink,3,2,2,False,0,3,9,2490,4244,2490,0,2005,0,6.809808342453704,Germany,DEU,,,51.81579,12.11711,Chörau,68069
Berlin,,8649400410,2015-04-17,375000,light blue,3,1,1,False,0,4,7,2140,13598,1620,520,1970,0,6.979344407511574,Germany,DEU,,,49.22675,10.727689999999999,Wolframs-Eschenbach,96739
Guilderland,Albany,3905081070,2014-05-21,535800,light blue,4,2,2,False,0,3,8,1900,5790,1900,0,1994,0,0.5100562216435185,USA,USA,New York,NY,42.697272999999996,-73.89745400000001,,32082
Toronto,,7853270630,2015-01-20,544000,yelow,4,2,2,False,0,3,8,2340,6973,1930,410,2005,0,-2.1332706810995368,Canada,CAN,,,45.69583,-76.80360999999999,Bennetts Lake,E5T 6P9
Toronto,,2968801315,2014-09-17,361810,light blue,3,1,1,False,0,3,7,1240,7620,1240,0,1968,2014,-2.074743292349537,Canada,CAN,,,47.34035,-76.10243,Lac de la Noce d'Oiseaux,T4L 9H3
Bastrop,Bastrop,925059198,2014-08-28,514000,white,3,2,1,False,0,4,7,1770,7200,1770,0,1967,0,10.244421281793981,USA,USA,Texas,TX,30.13883,-97.292101,,54130
Edmonton,,2767604551,2014-08-22,371000,light pink,2,1,3,False,0,3,8,1110,1189,1110,0,2000,0,6.114222932604166,Canada,CAN,,,51.449940000000005,-117.13553999999999,Donald Creek,E5N 1N9
Toronto,,2767604592,2014-06-19,607500,white,3,3,3,False,0,3,8,1530,1612,1530,0,2006,0,3.4733592554050934,Canada,CAN,,,45.08893,-72.02232,Fairfax,P2A 4T9
Edmonton,,9301300805,2014-12-15,675000,light blue,3,2,2,False,0,3,8,1300,1590,1100,200,2014,0,10.193242569965278,Canada,CAN,,,57.433330000000005,-111.73443999999999,Lillian Lake,X1A 0R5
Toronto,,5595900345,2015-01-13,460000,light gray,4,2,2,False,0,4,8,3460,13168,3460,0,1932,1986,-0.8476944043171296,Canada,CAN,,,45.56678,-73.89919,District électoral de la Seigneurie,J1S 3E6
Barnesville,Montgomery,4324500490,2014-12-23,215000,light gray,3,1,1,False,0,4,7,1060,9954,1060,0,1960,0,2.4758312964583333,USA,USA,Maryland,MD,39.223321,-77.376426,,33756
Halifax,,7987400285,2015-04-29,494900,light gray,3,2,2,False,0,3,7,2040,2500,1470,570,2008,0,1.241980941354167,Canada,CAN,,,45.89318,-61.20333,Big Marsh,V0S 5N7
Diamond,Harney,9493200010,2014-06-23,347000,white,3,1,1,False,0,3,7,1270,8400,1270,0,1955,0,9.889145537106481,USA,USA,Oregon,OR,43.012221999999994,-118.665,,37659
Toronto,,5693501102,2014-10-30,598500,light pink,3,3,3,False,0,3,8,1560,2091,1560,0,2006,0,-1.2931872083796299,Canada,CAN,,,45.65012,-77.21616,Doré Bay,G5A 1C7
Bowdon,Wells,5100403952,2015-02-25,440000,white,2,1,1,False,0,3,7,1090,4128,1090,0,1948,0,0.1026327372685185,USA,USA,North Dakota,ND,47.434318,-99.701532,,54220
Oak Hall,Accomack,2525049133,2015-04-02,1398000,pink,5,2,1,False,0,4,7,2640,14959,1770,870,1929,0,6.20416783613426,USA,USA,Virginia,VA,37.933232000000004,-75.56236,,45420
Halifax,,1489300005,2014-08-01,1598000,light pink,5,3,2,False,0,3,10,4270,7500,3210,1060,2014,0,7.144857051261574,Canada,CAN,,,45.730779999999996,-60.47496999999999,Red Lake,B2C 4R5
Prairie City,Perkins,1332200130,2014-08-22,324950,white,4,2,2,False,0,3,7,2641,8615,2641,0,1998,0,9.920610786041667,USA,USA,South Dakota,SD,45.581342,-102.80847,,48236
Castalia,Winneshiek,9268200348,2014-10-28,439000,light gray,5,2,1,False,0,3,7,2610,5009,1710,900,1988,0,-0.2862037865972222,USA,USA,Iowa,IA,43.161179,-91.662904,,11421
Berlin,,5683500030,2015-03-20,489000,gray,4,1,1,False,0,3,7,1150,5217,1150,0,1951,0,4.873142135960649,Germany,DEU,,,53.18999,12.4688,Biesen,74329
Berlin,,3904980270,2015-05-05,517500,gray,3,2,2,False,0,3,8,1800,3933,1800,0,1989,0,-0.02560510305555556,Germany,DEU,,,48.63474,10.22424,Rechberg,29741
Berlin,,5245600120,2014-10-09,257500,white,3,1,1,False,0,3,7,1690,13825,1210,480,1955,0,9.410813152662037,Germany,DEU,,,53.141569999999994,10.48679,Bienenbüttel,87538
Ashton,Mason,2724079090,2015-01-05,1650000,light pink,4,3,3,False,3,3,11,3920,881654,3920,0,2002,0,7.838029261377316,USA,USA,West Virginia,WV,38.657102,-82.10890699999999,,11379
Berlin,,7215730410,2014-08-25,727000,white,4,3,2,False,0,3,9,3150,9703,3150,0,2001,0,-1.8495156340625,Germany,DEU,,,51.941759999999995,7.38433,Stevern,35892
Hilmar,Merced,7436300160,2014-06-25,409900,white,2,2,2,False,0,3,9,1590,1845,1590,0,1997,0,7.26664040599537,USA,USA,California,CA,37.408377,-120.856144,,30263
Southgate,Wayne,8732131200,2014-08-08,258000,Null,3,1,1,False,0,4,8,2270,9000,1330,940,1978,0,9.351445680810183,USA,USA,Michigan,MI,42.204434,-83.199919,,44136
Charlotte,Chittenden,825059271,2014-09-10,900000,yelow,3,2,1,False,0,3,8,2980,12600,1590,1390,1941,2012,8.161043856319445,USA,USA,Vermont,VT,44.311277000000004,-73.22796899999999,,42240
Halifax,,5561400220,2014-08-19,592500,black,4,2,1,False,0,5,8,3370,35150,1770,1600,1993,0,-1.9522453859953701,Canada,CAN,,,44.87635,-62.631609999999995,Eastern Long Hill Lake,A1N 2V5
Coal Center,Washington,2723069082,2015-04-24,788500,yelow,4,2,2,False,0,4,8,2510,133729,2510,0,1977,0,10.301836297129631,USA,USA,Pennsylvania,PA,40.097272,-79.8839,,43110
Toronto,,6303401150,2014-09-24,125000,white,2,1,1,False,0,4,5,810,8382,810,0,1942,0,7.51456374287037,Canada,CAN,,,44.75012,-78.28283,Maniece Island,H5A 3R9
Warrenton,Warren,104510440,2014-06-04,219950,yelow,3,2,1,False,0,3,7,1500,7615,1150,350,1984,0,-1.7951233683796293,USA,USA,Georgia,GA,33.40914,-82.63568000000001,,48124
Price,Carbon,2095800400,2014-11-13,455000,light pink,3,2,2,False,0,3,8,2090,8653,2090,0,1989,0,0.080760025625,USA,USA,Utah,UT,39.602013,-110.808117,,44052
Cheswick,Allegheny,5700003640,2014-05-19,2095000,yelow,5,3,2,False,3,4,10,5340,10655,3740,1600,1912,0,5.886803289699074,USA,USA,Pennsylvania,PA,40.568117,-79.841002,,30126
Kilbourne,Delaware,7300410300,2014-11-06,355000,white,4,2,2,False,0,3,9,2570,6466,2570,0,1999,0,8.620820015046297,USA,USA,Ohio,OH,40.33,-82.9575,,20175
Toronto,,3751600409,2015-05-08,510000,light pink,4,2,2,False,0,3,8,4073,17334,4073,0,2008,0,5.5713847571875,Canada,CAN,,,45.5001,-79.24964,Joy Island,H3E 2K6
Berlin,,7212660560,2014-08-26,310000,light blue,3,2,2,False,0,3,8,2370,6752,2370,0,1994,0,3.817514861273148,Germany,DEU,,,48.28116,12.357660000000001,Steng,31438
Macy,Miami,2597500090,2014-08-08,270000,yelow,5,2,1,False,0,4,8,2630,8470,2630,0,1968,0,8.521066417685185,USA,USA,Indiana,IN,40.961838,-86.126428,,02072
Berlin,,6979900330,2015-03-25,650000,black,4,2,2,False,0,3,8,2630,28298,2630,0,1996,0,6.6949860398958325,Germany,DEU,,,50.23333,9.56667,Steinbachsküppel,37521
Toronto,,8562900180,2014-05-09,491300,gray,3,1,1,False,1,4,7,1750,11340,1300,450,1987,0,9.61273672488426,Canada,CAN,,,46.020559999999996,-74.38056,Lac Azur,G0C 9R3
Sabinsville,Tioga,3886903155,2015-03-04,606000,Null,3,2,1,False,0,4,6,1980,7680,1070,910,1911,0,7.617911416261574,USA,USA,Pennsylvania,PA,41.856414,-77.537825,,14580
Berlin,,5200100115,2014-11-17,540000,light gray,3,1,1,False,0,4,7,1610,3478,1060,550,1929,0,-1.4475313004861108,Germany,DEU,,,48.35008,8.50901,Dornhan,83745
Berlin,,4067600160,2015-04-02,902500,light pink,3,3,2,False,0,3,10,3240,23522,2130,1110,1992,0,-0.8311097442708334,Germany,DEU,,,47.59823,9.63524,Kümmertsweiler,46356
Mitchellville,Sumner,7855900110,2014-07-18,1088890,white,4,2,1,False,4,4,9,3460,11350,1780,1680,1974,0,-2.4636673291782407,USA,USA,Tennessee,TN,36.631944,-86.54083299999999,,47933
Weatherford,Custer,5469300270,2014-05-06,234000,yelow,3,1,1,False,0,4,7,1490,8366,1010,480,1975,0,2.725097281018519,USA,USA,Oklahoma,OK,35.535046,-98.699603,,38671
Goshen,Cape May,3886902590,2015-02-26,470000,yelow,5,2,1,False,0,4,6,1900,6000,1900,0,1920,0,-0.2078177114583334,USA,USA,New Jersey,NJ,39.141389000000004,-74.85333299999999,,85718
Halifax,,4038700720,2014-09-18,525126,black,5,2,1,False,2,3,7,1950,8025,1150,800,1960,0,3.262529875833333,Canada,CAN,,,45.09406,-61.93838,Nauffts Lake,T1Y 5Y0
Burgess,Northumberland,5101402488,2014-06-24,438000,black,3,1,1,False,0,3,7,1520,6380,790,730,1948,0,-2.560132266736111,USA,USA,Virginia,VA,37.868682,-76.354164,,19026
New Hope,Nelson,9264901040,2014-05-16,239900,light pink,4,2,1,False,0,3,8,1860,7000,1120,740,1979,0,2.384615301724537,USA,USA,Kentucky,KY,37.631944,-85.508333,,78213
Edgecomb,Lincoln,4114601570,2014-11-18,3600000,yelow,3,3,2,True,4,3,10,5020,12431,3420,1600,1941,2002,4.6032431512268515,USA,USA,Maine,ME,43.979178999999995,-69.619742,,26554
New Lisbon,Juneau,5249802460,2014-12-10,500000,yelow,3,1,1,False,0,3,7,1800,7200,1020,780,1964,0,-1.206692820798611,USA,USA,Wisconsin,WI,43.88775,-90.152407,,20705
Berlin,,7011200160,2014-11-13,595000,light pink,3,1,1,False,0,3,7,2060,3600,1180,880,1905,1985,-1.1527440282407408,Germany,DEU,,,48.938179999999996,9.52641,Ebersberg,96212
Toronto,,5101404482,2014-09-29,650000,green,3,2,1,False,0,4,8,2220,6380,1660,560,1931,0,7.4116573627777775,Canada,CAN,,,45.16028,-76.39833,Lake on the Mount,T4S 7N2
Toronto,,3319500317,2014-05-22,380000,white,2,2,2,False,0,3,7,1230,987,1060,170,2011,0,10.69538106061343,Canada,CAN,,,46.76228,-82.78544000000001,Salvage Lake,V8G 9V2
St_Johns,,8956200990,2015-04-26,499160,yelow,4,2,2,False,0,3,9,2628,11466,2628,0,2014,0,4.7585924407060185,Canada,CAN,,,47.4499,-54.414880000000004,Rocky Cove Sunker,H9P 9M2
Toronto,,6381500110,2015-01-08,330000,yelow,3,1,1,False,0,4,7,1160,7912,1160,0,1956,0,2.073412016273148,Canada,CAN,,,47.96472,-73.34917,Lac des Côtes,E4X 3A1
Vancouver,,1862400528,2014-07-16,350500,light pink,2,2,3,False,0,3,8,1290,1445,1290,0,1999,0,6.1586629013310175,Canada,CAN,,,49.26637,-122.80261999999999,Scott Creek,L9H 5H4
Palisade,Mesa,8067000020,2014-06-11,295000,white,5,3,2,False,0,3,7,2100,5107,1410,690,1999,0,7.799097208900462,USA,USA,Colorado,CO,39.103178,-108.367977,,01915
Vancouver,,104550660,2014-07-28,275000,yelow,3,2,2,False,0,3,7,1870,6821,1870,0,1989,0,2.012681789259259,Canada,CAN,,,50.46649,-119.15234,Glanzier Creek,B2G 1E4
Toronto,,7708200600,2014-07-18,498000,gray,3,2,2,False,0,3,8,2480,4136,2480,0,2009,0,2.6870457890625,Canada,CAN,,,43.66072,-79.37342,Downtower Inn Toronto,V2G 0S5
Enosburg Falls,Franklin,4365700450,2014-11-06,193000,white,2,1,1,False,0,3,6,950,9000,950,0,1924,0,9.195071167407407,USA,USA,Vermont,VT,44.898491,-72.791037,,38501
Edward,Beaufort,7899800890,2015-02-26,181000,blue,2,1,1,False,0,3,6,720,5120,720,0,1954,0,-1.4999343437152781,USA,USA,North Carolina,NC,35.323588,-76.879388,,59801
Toronto,,9557300190,2014-07-11,440000,light blue,3,2,1,False,0,3,8,1900,7225,1220,680,1970,0,10.52936521841435,Canada,CAN,,,50.615829999999995,-66.92194,Lac Angulaire,T1Y 5L0
Toronto,,6354000050,2014-09-08,615000,light gray,3,2,2,False,0,4,9,2530,45234,2530,0,1985,0,10.19484578961806,Canada,CAN,,,47.98338,-84.84985,Lendrum,N0P 9J5
Toronto,,1015000050,2015-01-06,652600,,4,2,2,False,0,3,8,2220,5900,2220,0,2014,0,3.934447005752315,Canada,CAN,,,48.36722,-72.64416999999999,Lac de la Moelle,J6N 9R0
Regina,,1828000050,2014-05-14,625000,light blue,4,2,1,False,0,4,7,1680,11180,1680,0,1966,0,5.341513169664351,Canada,CAN,,,58.033469999999994,-102.90042,Hartle Lake,H7B 2X2
Regina,,1432400065,2014-06-05,189000,Null,3,1,1,False,0,3,6,1010,7560,1010,0,1958,0,9.935467878842593,Canada,CAN,,,55.050059999999995,-105.70048,Britnell Lake,J8A 9M7
Shandaken,Ulster,3288200030,2014-08-29,405000,white,4,2,1,False,0,4,7,2030,9095,1130,900,1972,0,8.399918888738426,USA,USA,New York,NY,42.108353,-74.40908400000002,,32955
St_Johns,,7852070210,2014-05-27,1149000,gray,4,3,2,False,4,3,11,5940,11533,4950,990,2004,0,-1.7112801134953701,Canada,CAN,,,49.599920000000004,-54.164809999999996,Burnt Point,E4Y 6J6
Alexander,Genesee,8832900550,2014-09-12,650000,yelow,3,2,1,False,3,3,8,2690,11575,2130,560,1957,0,6.01178813636574,USA,USA,New York,NY,42.915851,-78.25889000000001,,33844
Berlin,,3876311180,2014-09-04,373000,white,3,1,1,False,0,3,7,1310,7811,1310,0,1976,0,8.418188637314815,Germany,DEU,,,50.731159999999996,13.08335,Ganshäuser,15199
Kirkland,Yavapai,4364700600,2014-12-16,216000,pink,3,1,1,False,0,3,6,1010,7920,1010,0,1925,0,7.355032294027778,USA,USA,Arizona,AZ,34.454149,-112.89664099999999,,57401
Bayard,Grant,4346300010,2014-06-18,545500,light pink,3,2,1,False,0,4,7,1560,9361,1360,200,1936,0,-2.515535823981482,USA,USA,New Mexico,NM,32.756334,-108.10766699999999,,19013
Berlin,,1061400180,2015-01-06,240000,white,3,1,1,False,0,4,7,1550,12670,1550,0,1962,0,7.057321797708332,Germany,DEU,,,50.29992,10.907010000000001,Wiesenfeld,55190
Wadley,Jefferson,5466000030,2014-06-03,328500,white,3,2,2,False,0,4,9,1950,8130,1950,0,1990,0,4.49621512519676,USA,USA,Georgia,GA,32.874742,-82.402459,,02886
Toronto,,2768100186,2014-06-18,515000,white,3,3,2,False,0,3,8,1360,1419,1040,320,2007,0,4.94548809462963,Canada,CAN,,,45.95006,-82.73316,Jubilee Shoal,T9A 4L8
Goose_Bay,,9826701765,2014-08-08,715000,white,3,1,1,False,0,3,6,1610,7680,900,710,1956,0,1.9397271304282409,Canada,CAN,,,53.93199,-58.86966999999999,Rocky Islands,G3Z 9T9
Joseph,Sevier,7504400750,2015-01-05,652427,pink,4,2,2,False,0,4,8,2770,13129,2770,0,1979,0,10.27147423501157,USA,USA,Utah,UT,38.622091999999995,-112.22511899999999,,52804
Sugartown,Beauregard,6855100010,2014-09-23,505000,light pink,3,2,1,False,0,5,7,2400,9601,1390,1010,1977,0,6.844493760706017,USA,USA,Louisiana,LA,30.827653,-93.01701700000001,,48430
Toronto,,2424039036,2014-08-22,282000,yelow,3,2,2,False,0,3,8,1260,915,1020,240,2007,0,3.149177608576389,Canada,CAN,,,45.89567,-71.71379,Fosse de l'Arbre Déraciné,E5J 7R3
Toronto,,3902310210,2014-08-22,610000,yelow,4,2,1,False,0,5,8,2100,8800,1250,850,1980,0,9.661958330983797,Canada,CAN,,,46.0834,-79.54963000000001,Nipissing,L9M 6J3
Berlin,,6150200435,2014-05-13,230000,light blue,2,0,1,False,0,4,5,650,5360,650,0,1931,0,-1.06791500537037,Germany,DEU,,,50.014140000000005,9.158389999999999,Grauenstein,87831
La Palma,Orange,319500080,2014-06-18,764000,yelow,4,2,2,False,0,3,9,2790,7938,2790,0,1997,0,3.2108894040046296,USA,USA,California,CA,33.849016999999996,-118.040618,,31601
Berlin,,808300200,2015-03-19,468000,white,4,2,2,False,0,3,7,3040,20682,3040,0,2000,0,6.183433926458332,Germany,DEU,,,49.93949,9.89189,Forstberg,59507
Toronto,,3616600231,2014-06-03,960000,light blue,4,3,2,False,0,3,10,4590,9150,3490,1100,1981,0,-1.7567401917013892,Canada,CAN,,,47.14755,-73.95153,Lac Maria,H5B 3X4
Whitewater,Butler,1175000110,2014-12-02,506000,white,2,1,1,False,0,4,7,1060,3588,960,100,1926,0,4.817284310787037,USA,USA,Kansas,KS,37.961231,-97.13081600000001,,30030
Vancouver,,2487700274,2015-03-09,437000,light pink,2,3,2,False,0,3,8,1460,1452,1140,320,2007,0,1.2208003046064808,Canada,CAN,,,54.507780000000004,-123.39943999999998,Oop Lake,A1X 2M7
Berlin,,164000267,2014-10-16,311300,yelow,2,1,1,False,0,4,7,1000,7228,1000,0,1947,0,10.63768379732639,Germany,DEU,,,53.8667,13.1167,Utzedel,55827
Mount Carroll,Carroll,2621069066,2015-04-27,585000,yelow,3,2,2,False,0,3,9,3190,207346,3190,0,1994,0,2.111473265081019,USA,USA,Illinois,IL,42.105308,-89.984454,,58501
St_Johns,,5315100667,2014-06-03,571500,light pink,3,1,1,False,0,4,6,1300,6710,1300,0,1952,0,-2.815176808101852,Canada,CAN,,,47.53324,-55.615019999999994,Robins Rock,T1P 0L4
Toronto,,1646500810,2014-09-19,625000,gray,2,1,2,False,0,3,8,1460,1500,1000,460,2008,0,3.875990794618055,Canada,CAN,,,51.39866,-69.01804,Lac du Lièvre à Raquettes,R7N 3S3
Toronto,,7853321090,2014-10-01,450000,white,3,2,2,False,0,3,7,2410,4293,2410,0,2007,0,4.183256018564815,Canada,CAN,,,44.26682,-76.28268,Quinns Bay,H9K 9S5
Jackson,Northampton,2624089007,2015-03-20,1998000,white,2,2,2,False,0,3,12,3900,920423,3900,0,2009,0,8.158922352418983,USA,USA,North Carolina,NC,36.386984000000005,-77.468144,,07002
West Linn,Clackamas,5104531640,2015-03-23,585000,light pink,4,3,2,False,0,3,9,3400,5100,3400,0,2006,0,0.3291750266319445,USA,USA,Oregon,OR,45.366873999999996,-122.647952,,99337
Toronto,,2652500740,2014-06-18,855000,white,4,2,2,False,0,3,8,2190,4080,1800,390,1918,0,10.26388699699074,Canada,CAN,,,45.4834,-80.4497,Blight Island,H9P 3R8
Toronto,,2887700995,2014-05-08,530000,light gray,4,2,1,False,0,4,7,2280,2850,1540,740,1930,0,3.941696287685185,Canada,CAN,,,46.23898,-80.37468,Deer Bay,K7C 7M6
Abington,Montgomery,624110050,2014-06-04,760000,white,4,2,2,False,0,3,10,3370,12447,3370,0,1991,0,6.579176953796297,USA,USA,Pennsylvania,PA,40.128141,-75.128918,,83651
Fountain,Bay,1665400045,2015-04-28,186375,white,3,1,1,False,0,2,7,1000,7636,1000,0,1952,0,3.690326723587963,USA,USA,Florida,FL,30.475327000000004,-85.429272,,49085
Toronto,,1795910420,2014-10-31,515000,light pink,3,2,2,False,0,3,8,2100,7851,2100,0,1986,0,10.87582001290509,Canada,CAN,,,59.03366,-69.13181999999999,Île Inussulik,E4S 7K3
Toronto,,291310610,2015-02-27,415000,white,3,2,2,False,0,3,7,1445,1512,1300,145,2004,0,5.1890764241435186,Canada,CAN,,,46.02285,-73.90003,Rivière Beaulac,L7J 8T3
,,8732800100,2014-09-16,312000,gray,4,2,1,False,0,3,7,1890,8362,1890,0,1966,0,4.900679010243056,Canada,CAN,,,47.24722,-77.70306,Lac Framont,V4B 4Y6
Edmonton,,7853220610,2014-07-29,457000,yelow,3,2,2,False,2,3,8,2050,5694,2050,0,2004,0,-1.7866493947916668,Canada,CAN,,,51.41683,-112.63516000000001,Rosedale Station,E9C 0K8
Jonesburg,Montgomery,9269750460,2014-05-19,247000,black,3,2,2,False,0,4,7,1580,7941,1580,0,1986,0,2.264573486493056,USA,USA,Missouri,MO,38.871658000000004,-91.30193,,21133
Cyrus,Pope,1370802115,2014-12-05,1925000,pink,3,4,2,False,3,3,11,3950,6134,2880,1070,1998,0,3.5326380500115735,USA,USA,Minnesota,MN,45.569483,-95.706965,,60025
Vancouver,,6600060150,2015-03-12,392000,pink,4,2,2,False,0,3,8,2130,4028,2130,0,2014,0,5.346714681099537,Canada,CAN,,,50.36649,-119.23566000000001,Larkin,T8N 6K1
Vancouver,,9165100375,2014-11-18,510000,yelow,5,2,1,False,0,4,7,2740,3838,1370,1370,1959,0,6.7072914116087965,Canada,CAN,,,49.33305,-120.06073,Redtop Gulch,H5B 1S7
Winnipeg,,7403200050,2014-11-13,1600000,light blue,3,2,1,True,4,3,10,3370,23065,1920,1450,1980,0,-0.5767329388425926,Canada,CAN,,,49.9511,-96.99003,Duff Roblin Provincial Park,J0R 4G9
Berlin,,5153200486,2014-07-15,185000,white,5,1,1,False,0,3,7,1990,27810,1990,0,1955,0,1.1848367472453702,Germany,DEU,,,50.84105,14.74124,Kurort Oybin,46395
Halifax,,6132600221,2014-05-19,367000,blue,2,1,1,False,0,3,7,700,2334,700,0,1945,0,9.268025023402778,Canada,CAN,,,44.01296,-65.66048,Muises Lake,G3L 5H8
Winnipeg,,2473001210,2014-09-16,333000,gray,4,1,1,False,0,4,8,1880,9880,1880,0,1967,0,6.958497757488426,Canada,CAN,,,53.958290000000005,-94.29354000000001,Makosteekwaneekakan Bay,V5K 5P5
Toronto,,7663700150,2014-08-22,635000,light pink,4,3,2,False,3,3,9,2690,7200,1720,970,1978,0,10.20316853333333,Canada,CAN,,,51.43342,-66.9821,Kaaitukameshtesht,J8E 8X1
Manassas,Manassas City,7555210100,2014-11-17,880000,black,4,2,1,False,2,4,8,2560,7961,1450,1110,1975,0,3.963858270798611,USA,USA,Virginia,VA,38.7518,-77.4728,,30014
Toronto,,1048000060,2014-06-19,543000,pink,3,2,3,False,0,3,8,1240,949,1240,0,2008,0,7.800570515810184,Canada,CAN,,,50.46306,-65.27056,Lac June,N3B 4V3
Preston,Hickory,3317010130,2015-03-17,236000,yelow,3,1,1,False,0,3,7,1090,7647,1090,0,1994,0,2.9450770388425935,USA,USA,Missouri,MO,37.939025,-93.171295,,18944
Colona,Henry,1624079051,2014-07-10,600000,Null,2,2,1,False,0,4,7,2410,102366,1940,470,1912,1989,4.577160330590279,USA,USA,Illinois,IL,41.475224,-90.349231,,47711
Toronto,,3905030330,2014-10-08,564800,white,3,2,2,False,0,3,8,1990,8501,1990,0,1991,0,7.787460820590278,Canada,CAN,,,49.238890000000005,-87.12028000000001,Felix Lake,H7P 1N5
Halifax,,7212680020,2014-12-19,299500,light pink,3,1,2,False,0,3,7,1820,8813,1820,0,1994,0,8.786631922372685,Canada,CAN,,,44.14467,-64.55279,Halfway Rocks,E5P 6E9
Berlin,,4054530260,2014-06-27,1820000,black,4,4,2,False,0,3,12,6640,53330,6640,0,1993,0,7.5960435448842585,Germany,DEU,,,50.20006,9.195260000000001,Kaiserpfalz Gelnhausen,64511
Winnipeg,,7852030790,2015-05-05,500000,pink,4,2,2,False,0,3,7,2960,5027,2960,0,2000,0,2.455837375543982,Canada,CAN,,,50.99282,-98.44884,Pebble Beach,B0P 8E5
Duryea,Luzerne,8091400200,2014-05-16,252700,light blue,2,1,1,False,0,3,7,1070,9643,1070,0,1985,0,4.025525977974537,USA,USA,Pennsylvania,PA,41.348557,-75.761104,,33702
Sharon Springs,Wallace,5490700100,2014-12-08,310000,white,3,1,1,False,0,4,7,1210,7649,1210,0,1956,0,-1.051670168391204,USA,USA,Kansas,KS,38.885661,-101.74311800000001,,11369
Berlin,,4356200120,2014-10-23,248000,gray,1,1,1,False,0,3,6,790,12000,790,0,1918,0,2.8755365225115734,Germany,DEU,,,50.17699,12.197230000000001,Wartberg,46206
Toronto,,2472950120,2014-06-03,272500,white,3,2,1,False,0,4,7,1410,7622,1410,0,1983,0,-0.188090769537037,Canada,CAN,,,46.393679999999996,-81.58868000000001,Pickerel Bay,R2C 4E7
Toronto,,7768800160,2014-08-27,1054710,light pink,4,3,2,False,3,3,9,4210,6481,3260,950,2014,0,0.756421714212963,Canada,CAN,,,45.55417,-78.79101,Red Lake,G0A 2P3
Toronto,,3211230300,2014-09-29,381500,pink,2,2,1,False,0,3,9,2160,35183,2160,0,1985,0,8.496225991319445,Canada,CAN,,,47.18507,-78.91425,Lac Expansif,J9B 8A9
Berlin,,8658301535,2014-07-21,240000,light pink,3,1,1,False,0,3,6,1090,10000,1090,0,1961,0,4.274587032847221,Germany,DEU,,,51.235820000000004,10.03988,Motzenrode,99407
Berlin,,3362401935,2014-06-19,549000,light pink,4,1,2,False,0,4,7,1290,3060,1290,0,1906,0,2.501679750787037,Germany,DEU,,,47.61815,10.55535,Oberdolden,61374
Puxico,Stoddard,7243500025,2014-05-19,411000,Null,4,2,2,False,0,3,8,2500,5257,2500,0,1966,0,10.57157169939815,USA,USA,Missouri,MO,36.942163,-90.162258,,01841
Toronto,,1702901340,2014-06-13,718500,gray,3,2,2,False,0,4,7,2910,6600,1920,990,1900,1988,3.8226502198842587,Canada,CAN,,,42.90012,-78.98286,Edgewood Park,N8H 9K6
Berlin,,4375700055,2014-06-27,500000,light blue,2,1,1,False,0,5,7,1520,8040,1520,0,1951,0,7.311104676724536,Germany,DEU,,,48.7762,13.245920000000002,Ellerbach,38706
Berlin,,4167100240,2015-03-10,252000,yelow,3,1,1,False,0,4,6,1440,16819,1440,0,1925,0,0.09279383986111113,Germany,DEU,,,52.02035,12.53256,Klepzig,90754
Glenwood,Mills,2725069162,2014-08-15,772000,green,4,2,2,False,0,3,9,2990,9643,2990,0,2003,0,4.625711646793981,USA,USA,Iowa,IA,41.047009,-95.73892,,45040
Barwick,Brooks,1745100140,2014-10-17,210000,yelow,3,1,1,False,0,4,7,1700,11390,1700,0,1967,0,7.420332735138889,USA,USA,Georgia,GA,30.891944,-83.738333,,60073
Berlin,,7657000085,2015-02-02,218000,white,2,1,2,False,0,3,7,2010,7755,2010,0,1952,0,9.137811379641203,Germany,DEU,,,53.79419,12.69178,Hardtberg,57067
Berlin,,7214820200,2014-11-07,614000,yelow,4,2,1,False,0,4,8,2880,9996,1920,960,1981,0,5.566650846643518,Germany,DEU,,,53.136759999999995,7.875889999999999,Aue,85550
Edmonton,,7518506716,2014-08-27,969950,white,3,2,3,False,0,3,10,2830,3750,2830,0,2014,0,4.935940800868057,Canada,CAN,,,,,,
Flushing,Genesee,3992700130,2014-07-08,267000,light pink,3,1,1,False,0,3,6,1400,8100,1400,0,1944,0,6.015627801099537,USA,USA,Michigan,MI,43.071954,-83.842391,,55033
Toronto,,8078350220,2014-09-11,599950,white,4,2,2,False,0,4,8,2290,6318,2290,0,1988,0,0.036004664548611114,Canada,CAN,,,49.200070000000004,-71.56569,Ruisseau du Tunnel,J5X 1K0
Vancouver,,3052700460,2014-06-30,544000,light gray,3,2,2,False,0,3,8,1460,1613,1180,280,2007,0,8.925147967118058,Canada,CAN,,,51.66661,-117.919,Palisade Pass,K4P 6G3
Vancouver,,207700050,2014-10-15,588000,light gray,5,3,2,False,0,3,8,3110,4464,3110,0,2007,0,-1.308709755810185,Canada,CAN,,,49.11501,-125.72641999999999,Indian Bay,K7K 4P7
Rankin_Inlet,,889000025,2014-08-11,599000,gray,3,1,3,False,0,3,8,1650,1180,1650,0,2014,0,4.890225197777778,Canada,CAN,,,64.2076,-94.7809,Jigging Point,E4P 2T0
Berlin,,4338800685,2014-08-19,299999,gray,4,2,1,False,0,5,6,1640,7200,820,820,1944,0,-1.798515643321759,Germany,DEU,,,48.626979999999996,11.79573,Sandelzhausen,67035
Fruitland,Payette,9536602080,2014-12-19,229000,light pink,3,1,1,False,0,3,7,1020,8100,1020,0,1954,0,0.09248404746527776,USA,USA,Idaho,ID,44.002658000000004,-116.91425900000002,,60110
Berlin,,727500030,2014-07-15,815000,white,3,1,1,False,0,3,7,1370,8671,1370,0,1955,0,0.3441447982407407,Germany,DEU,,,51.68333,9.28333,Wiehorn,41263
Berlin,,3574801510,2014-08-13,442573,Null,3,1,1,False,0,3,7,1780,7567,1290,490,1980,0,-2.209499433310185,Germany,DEU,,,48.54538,13.70605,Oberöd,94798
Berlin,,423059360,2014-10-17,345000,gray,4,2,2,False,0,3,8,2040,5875,2040,0,2004,0,9.078726607175927,Germany,DEU,,,49.4131,8.70578,Heuscheuer,97042
Waverly,Lafayette,8899210680,2014-09-15,359000,blue,3,2,2,False,0,5,8,2430,7857,1730,700,1980,0,2.8331377675115736,USA,USA,Missouri,MO,39.205523,-93.52565200000001,,06512
Thurston,Fairfield,4388600030,2014-11-03,605000,black,5,2,2,False,0,3,8,3220,9603,3220,0,1972,0,8.074666735208334,USA,USA,Ohio,OH,39.840278000000005,-82.546111,,07920
Toronto,,2482500040,2014-07-17,199900,light blue,5,1,1,False,0,3,7,1798,11232,1798,0,1967,0,4.281895041967593,Canada,CAN,,,48.50731,-76.55247,Lac Saint-Pierre,E4Y 3G4
Ohatchee,Calhoun,8691400600,2014-12-08,750000,light gray,4,2,2,False,0,3,9,3290,7538,3290,0,2004,0,7.1065799766782405,USA,USA,Alabama,AL,33.778779,-86.025357,,35007
Berlin,,9567800435,2015-05-13,465000,green,4,1,1,False,0,4,7,1640,7194,1480,160,1915,0,8.669103952083333,Germany,DEU,,,53.925019999999996,9.44626,Bekmünde,35500
Ebervale,Luzerne,2113700335,2015-04-08,316500,light pink,3,1,1,False,2,3,7,1460,6360,1010,450,1979,0,0.7602048033796296,USA,USA,Pennsylvania,PA,40.986111,-75.94166700000001,,06457
Vancouver,,8011100095,2014-06-10,415000,yelow,3,2,2,False,0,3,8,2090,6045,2090,0,2000,0,3.4473406823842585,Canada,CAN,,,48.82845,-125.12518,Port Desire,J9E 6A3
Thomasville,Clarke,7967200290,2014-05-30,190000,white,3,2,1,False,0,3,7,1590,11745,1090,500,1978,0,3.904026938923611,USA,USA,Alabama,AL,31.906728,-87.759842,,29577
Berlin,,1861400060,2014-05-05,740000,light pink,4,1,1,False,0,3,7,2010,3600,2010,0,1902,0,0.8190883771527778,Germany,DEU,,,53.59381,7.905689999999999,Kattens,82084
Winnipeg,,3782760170,2015-02-11,480000,green,4,2,2,False,0,3,8,2980,4074,2980,0,2011,0,10.78976115486111,Canada,CAN,,,52.24361,-97.11984,Pigeon Point,G8J 8P9
Toronto,,1806900499,2014-07-21,675000,gray,3,3,2,False,0,3,8,1720,1330,1030,690,2004,0,0.6058383884722222,Canada,CAN,,,,,,
Halifax,,7242800040,2015-01-20,519990,pink,4,3,2,False,0,3,8,1690,1321,1320,370,2014,0,8.215343268773147,Canada,CAN,,,46.23341,-62.881969999999995,Lake Verde,N4L 6J4
Berlin,,4397650160,2014-09-22,848000,yelow,3,3,2,False,0,3,10,3010,5717,3010,0,2000,0,0.3726240502546296,Germany,DEU,,,,,,
Bristow,Perry,4391600035,2014-07-01,510000,pink,3,1,2,False,0,3,7,1750,7020,1750,0,1934,1978,7.337703704791666,USA,USA,Indiana,IN,38.163101,-86.721815,,60172
St_Johns,,2724049222,2014-08-02,163800,white,2,2,2,False,0,3,7,1000,1092,990,10,2004,0,3.5064494521875,Canada,CAN,,,47.897090000000006,-53.72031,Strong Tickle,E5B 3K1
Berlin,,7740500070,2014-07-10,475000,Null,3,2,1,False,0,3,8,1880,9659,1180,700,1951,0,0.8708255119791666,Germany,DEU,,,52.54685,7.64836,Lonner Tannen,66918
Edmonton,,5101404351,2014-07-02,550000,gray,4,2,1,False,0,3,7,2160,5005,1430,730,1987,0,1.5533313977199068,Canada,CAN,,,50.450109999999995,-111.91848999999999,Kinbrook Island,N0N 4P2
Toronto,,1152700120,2015-04-09,370000,pink,4,3,2,False,0,3,9,2490,5706,2490,0,2005,0,-0.975363217037037,Canada,CAN,,,45.213609999999996,-79.54056,Bent River,E4E 0E1
Toronto,,1102001055,2015-04-24,518000,white,3,1,1,False,3,3,7,1270,6612,1270,0,1927,0,10.103765609976849,Canada,CAN,,,43.6543,-79.3831,Toronto Marriott Downtown Eaton Centre,N3B 9A4
Monterey Park,Los Angeles,6730700385,2014-10-22,205000,white,3,0,1,False,0,3,4,770,7000,770,0,1942,0,-2.4012511498958333,USA,USA,California,CA,34.053409,-118.127144,,34761
Berlin,,9324320030,2015-03-17,281000,light pink,3,1,1,False,0,4,7,1690,9826,1690,0,1988,0,0.02431625517361111,Germany,DEU,,,53.96666999999999,13.333329999999998,Schmoldow,27120
Burnside,Clearfield,6623400135,2014-05-22,324000,gray,3,2,2,False,0,3,8,1750,7208,1750,0,1994,0,10.155096981631939,USA,USA,Pennsylvania,PA,40.813431,-78.786488,,44663
Bellmore,Parke,2767704302,2015-04-10,422250,gray,2,1,2,False,0,3,8,1280,1256,1200,80,1998,0,4.756813975092593,USA,USA,Indiana,IN,39.759167,-87.105278,,92236
Berlin,,396100110,2014-05-16,282613,Null,2,1,1,False,0,4,6,830,6017,830,0,1954,0,9.678910424155092,Germany,DEU,,,50.17548,10.74441,Ebene,97759
Shippensburg,Cumberland,1653500070,2014-05-12,927000,yelow,4,2,2,False,0,3,8,3300,12090,3300,0,1953,0,-0.9206733478703704,USA,USA,Pennsylvania,PA,40.051359000000005,-77.519477,,21221
Goose_Bay,,1732800780,2015-02-12,3065000,light gray,5,3,2,False,4,5,11,4150,7500,3510,640,1909,0,-0.5817245414583333,Canada,CAN,,,52.32756,-63.63756,Lac Pommerel,T4X 9M7
Berlin,,526059122,2014-12-05,495200,white,5,2,1,False,0,3,7,2710,22120,1410,1300,1955,0,10.62960164501157,Germany,DEU,,,53.566669999999995,8.11667,Kniphausersiel,40253
Toronto,,7955030010,2014-10-10,318000,gray,3,1,1,False,0,3,7,1250,20040,1250,0,1970,0,5.036172569687499,Canada,CAN,,,49.596990000000005,-69.70317,Lac Rachelle-Castonguay,E8G 5K6
Grenloch,Gloucester,8079030390,2015-03-04,446500,white,3,2,2,False,0,3,8,2650,7286,2650,0,1990,0,5.663099104814813,USA,USA,New Jersey,NJ,39.425833000000004,-75.225278,,30252
Berlin,,6705850140,2014-10-09,750000,light blue,4,2,2,False,0,3,10,3170,7634,3170,0,1992,0,7.735421288518518,Germany,DEU,,,48.53021,9.08112,Lustnau,43089
Princewick,Raleigh,476000335,2014-12-17,430000,light pink,2,1,3,False,0,3,7,1320,1194,1320,0,2001,0,10.42911818224537,USA,USA,West Virginia,WV,37.643456,-81.231022,,21234
Bradgate,Humboldt,8106300840,2014-07-21,485000,white,3,2,2,False,0,3,9,2870,5490,2870,0,2008,0,3.070687920833333,USA,USA,Iowa,IA,42.779425,-94.400239,,23703
St_Johns,,643300040,2014-11-04,481000,light gray,4,1,1,False,0,4,7,1920,9500,1470,450,1966,0,2.624335855578704,Canada,CAN,,,47.06415,-55.83444,Horse Brook,T8S 2A3
Berlin,,1250200765,2014-07-14,350000,light gray,3,2,2,False,0,3,8,1322,1796,1087,235,2005,0,2.559095985243056,Germany,DEU,,,50.53237,12.78645,Schwarzenberg Hp,92199
Berlin,,1120069036,2014-12-18,325000,gray,3,2,1,False,3,4,7,1570,43350,1570,0,1967,0,8.641141881435184,Germany,DEU,,,,,,
Vancouver,,255460240,2015-04-23,398096,gray,3,2,2,False,0,3,8,2370,5321,2370,0,2014,0,9.823616263888887,Canada,CAN,,,52.628890000000006,-121.85333,Jackpine Lake,J0J 7T2
Oakfield,Fond Du Lac,1737100830,2015-02-05,577000,white,4,2,2,False,0,3,8,2360,7490,2360,0,1979,0,10.139617707337962,USA,USA,Wisconsin,WI,43.686371,-88.556919,,20874
Berlin,,7853300720,2015-02-12,452500,white,4,2,2,False,0,3,7,2460,6454,2460,0,2006,0,1.3098858292245372,Germany,DEU,,,50.35758,11.84452,Stöckaten,22139
Edmonton,,6181700250,2015-02-26,350000,yelow,2,1,1,False,1,5,6,720,5820,720,0,1950,0,10.801523276435189,Canada,CAN,,,50.833890000000004,-116.40693999999999,Topaz Lake,E4W 2S2
Moncton,,5088500170,2014-10-27,435000,,3,2,2,False,0,3,9,2530,16102,2530,0,1989,0,2.457139143518518,Canada,CAN,,,45.68623,-64.7254,New Horton Lake,P5E 7M5
Berlin,,8682262190,2015-03-19,480000,yelow,2,2,1,False,0,3,8,1350,4220,1350,0,2004,0,6.848734137997685,Germany,DEU,,,47.80549,11.82798,Wallenburg,60761
Shamrock,Creek,621069146,2014-08-18,311000,blue,2,1,1,False,0,3,8,1180,55321,1180,0,1941,2004,4.073081910405094,USA,USA,Oklahoma,OK,35.91,-96.583611,,60193
Winnipeg,,3732800495,2014-10-28,429000,Null,5,2,1,False,0,3,7,2720,8120,1360,1360,1970,0,-0.7715115033101853,Canada,CAN,,,51.2226,-90.79141,Duffell Lake,E6G 8M2
Oconto Falls,Oconto,3622069095,2014-09-17,679000,light gray,4,3,2,False,0,3,9,3420,49223,3420,0,2004,0,4.2413766288657415,USA,USA,Wisconsin,WI,44.875499,-88.155528,,29464
Spicewood,Travis,9558020890,2015-03-24,334950,yelow,3,2,2,False,0,3,8,1620,2930,1620,0,2002,0,8.919171527615743,USA,USA,Texas,TX,30.389945,-98.05391999999999,,30008
Berlin,,9475710040,2014-08-20,291375,light gray,4,2,2,False,0,3,7,2220,6233,2220,0,2001,0,-2.5059031729166668,Germany,DEU,,,50.37744,12.05949,Bobenneukirchen,14338
Nett Lake,Saint Louis,1726069179,2014-12-23,432000,white,3,1,1,False,0,4,8,2410,51763,1410,1000,1981,0,1.782395543460648,USA,USA,Minnesota,MN,48.111111,-93.093889,,90403
St_Johns,,7812801590,2014-10-30,219900,yelow,3,1,1,False,0,3,6,860,6664,860,0,1944,0,2.359228323275463,Canada,CAN,,,,,,
Sadorus,Champaign,1352300315,2014-08-08,219950,white,2,1,2,False,0,3,6,1010,4120,1010,0,1907,1953,9.749048493472221,USA,USA,Illinois,IL,39.961312,-88.344717,,85302
Southern Pines,Moore,5104450690,2014-07-16,320000,gray,4,2,1,False,0,4,8,2610,9077,1310,1300,1987,0,2.522599998622685,USA,USA,North Carolina,NC,35.169746999999994,-79.395682,,07109
Vancouver,,8925100115,2014-10-15,1150000,light pink,2,2,1,False,4,5,9,2320,9300,1920,400,1937,0,7.467791828900464,Canada,CAN,,,48.94961,-125.0361,Tyler Rock,H9R 8B1
Cornwall Bridge,Litchfield,6204050080,2014-05-28,555000,yelow,3,2,2,False,0,3,8,3160,4270,2650,510,2006,0,3.2633883514467596,USA,USA,Connecticut,CT,41.770084000000004,-73.36747199999999,,22015
Brady,Mcculloch,9523104345,2014-12-18,825000,light blue,5,3,2,False,2,4,8,4080,7500,2720,1360,1961,0,7.668584473020834,USA,USA,Texas,TX,31.128303999999996,-99.3372,,34683
Winnipeg,,9402800005,2014-10-28,1500000,white,3,3,2,False,0,3,10,3530,3610,2370,1160,2008,0,9.493777750219907,Canada,CAN,,,50.12833,-98.64356,New Beaudin Drain,G3M 5H3
Berlin,,7923100400,2015-01-30,667000,yelow,5,2,1,False,0,4,8,2560,10360,1870,690,1966,0,5.3372299547569435,Germany,DEU,,,49.71917,8.55195,Langwaden,60164
Bronson,Levy,5112800233,2014-09-09,289000,white,3,1,1,False,0,4,6,1970,22486,1970,0,1968,0,-1.7975948911805548,USA,USA,Florida,FL,29.460952000000002,-82.635644,,12550
St_Johns,,1773101530,2014-12-18,275000,light blue,1,1,1,False,0,3,5,520,4800,520,0,1930,0,2.872476367685185,Canada,CAN,,,52.29853,-55.573159999999994,North Rib,J2W 3L6
Middletown,Montgomery,1026069163,2015-04-22,630000,white,3,2,2,False,0,3,9,2460,38794,2460,0,1999,0,8.473489896180556,USA,USA,Missouri,MO,39.105494,-91.387312,,60142
Daufuskie Island,Beaufort,5452800735,2014-07-22,780000,Null,4,2,1,False,0,4,9,2270,13449,1310,960,1975,0,10.58348590009259,USA,USA,South Carolina,SC,32.104167,-80.88555600000001,,50010
Louisville,Barbour,9561100010,2014-11-04,380000,light blue,3,2,1,False,0,3,7,1840,6985,1290,550,1971,0,1.445252527523148,USA,USA,Alabama,AL,31.794262,-85.55806199999999,,23666
Melfa,Accomack,269000615,2014-05-16,875000,yelow,3,2,1,False,2,4,7,2220,6641,1220,1000,1947,0,6.516492927743054,USA,USA,Virginia,VA,37.6407,-75.745355,,32547
Halifax,,6450300673,2014-12-31,310000,light pink,3,2,3,False,0,3,7,1310,1361,1310,0,2003,0,-2.074008880104167,Canada,CAN,,,45.15015,-61.63185,Bettys Cove,R5G 1K1
Berlin,,2781250560,2014-12-02,234000,light pink,2,2,2,False,0,3,6,1200,3624,1200,0,2003,0,-0.4608172425578704,Germany,DEU,,,52.17096,13.41031,Mellensee,39077
Finlayson,Pine,1604590190,2015-05-13,775000,light pink,5,3,1,False,0,3,10,3730,16679,2760,970,1990,0,7.191080246018517,USA,USA,Minnesota,MN,46.212111,-92.938924,,66801
Moundville,Vernon,3750603940,2014-09-25,240000,white,4,1,1,False,0,5,7,1880,9600,1020,860,1946,0,2.138113331655092,USA,USA,Missouri,MO,37.747637,-94.44964499999999,,45840
Fountain,Mason,9290850740,2014-06-18,975000,light blue,4,2,1,False,0,3,10,4270,43386,2680,1590,1991,0,9.679022176851852,USA,USA,Michigan,MI,44.036342,-86.216861,,29680
Toronto,,9578090050,2014-05-05,830000,gray,4,2,2,False,0,3,9,3400,9692,3400,0,2007,0,7.428185740844908,Canada,CAN,,,47.40806,-73.26611,Lac Okane,K8V 1B9
Toronto,,4077800593,2014-09-15,355000,yelow,3,1,1,False,0,3,7,1360,8968,1360,0,1956,0,-2.7392839674421285,Canada,CAN,,,48.029140000000005,-65.24875,Paspebiac,B2C 5H1
Berlin,,3224500240,2014-06-17,950000,yelow,3,2,1,False,2,5,9,2750,18029,1810,940,1978,0,7.447856527858797,Germany,DEU,,,47.86399,9.15062,Stohrenhof,81111
St_Johns,,8562770430,2014-07-02,567500,light gray,3,2,2,False,0,3,8,2280,2502,1880,400,2006,0,3.107136325173611,Canada,CAN,,,48.89989,-53.8981,Virgin Cove,X1A 2H9
Toronto,,293070090,2014-07-11,859990,yelow,4,2,2,False,0,3,9,3520,5500,3520,0,2014,0,-0.5744947910532407,Canada,CAN,,,43.1168,-80.11635,Fairchild Creek,J0K 2B9
Toronto,,9558050230,2015-05-07,590000,white,4,3,2,False,0,3,10,3450,6873,2750,700,2004,0,4.976194810694444,Canada,CAN,,,50.38361,-67.10417,Petit lac Atanache,L4P 0E0
Toronto,,8813400165,2014-08-19,675000,light blue,4,2,1,False,0,4,7,1890,5188,1670,220,1940,0,5.263826026481481,Canada,CAN,,,49.03399,-68.60677,Baie du Passage,J3L 2C4
Berlin,,4140500055,2014-06-26,560000,light blue,4,2,1,False,0,5,7,2480,16360,1510,970,1959,0,4.525427519513889,Germany,DEU,,,52.970169999999996,13.526570000000001,Großer Lotzinsee,81005
Harwood,Cass,1923039089,2014-06-10,285000,light pink,2,2,1,False,0,3,6,1651,18200,1651,0,1946,0,5.327035251493054,USA,USA,North Dakota,ND,46.996497,-96.900973,,29461
Canyon Lake,Comal,6745700190,2015-04-07,880000,light pink,3,1,1,False,0,3,8,2070,5000,2070,0,1920,0,6.741726248726853,USA,USA,Texas,TX,29.870984000000004,-98.249412,,21009
Landrum,Spartanburg,7206900075,2014-08-18,200000,black,5,1,1,False,0,4,7,1770,15525,1770,0,1959,0,7.206032149201389,USA,USA,South Carolina,SC,35.156486,-82.211473,,28376
Toronto,,301401630,2014-10-31,335900,light gray,4,2,2,False,0,3,7,2475,4000,2475,0,2014,0,1.8463904459143519,Canada,CAN,,,44.11792,-77.53978000000001,Base des Forces canadiennes Trenton,T7S 0Y2
Palestine,Saint Francis,2594200375,2015-03-30,427500,yelow,3,1,1,False,0,5,7,1240,7200,1240,0,1942,0,4.326800326064815,USA,USA,Arkansas,AR,34.966346,-90.90492900000001,,17268
